No,Codigo,Departamento,Municipio,Latitud,Longitud,Nombre Establecimiento,Direccion
1,16-01-0249-43,ALTA VERAPAZ,COBAN,15.768956,-90.806314,EORM,COMUNIDAD CHUMILA IXILA II
2,16-01-0364-43,ALTA VERAPAZ,COBAN,15.74527,-90.80307,EORM,COMUNIDAD CHUMILA IXILA I
3,16-01-0592-43,ALTA VERAPAZ,COBAN,15.737588,-90.781339,EOUV NO. 2 SALVADOR DE OLIVA,5A. CALLE 2-80 ZONA 3
4,16-01-0254-43,ALTA VERAPAZ,COBAN,15.691864,-90.778881,EORM,COMUNIDAD LA LIBERTAD XALA-ROCJA
5,16-01-0622-41,ALTA VERAPAZ,COBAN,15.691864,-90.778881,COPB ANEXO A EORM,COMUNIDAD CHUMILA IXILA II
6,16-01-0369-43,ALTA VERAPAZ,COBAN,15.70181,-90.77606,EORM,CASERIO SAPENS
7,16-01-0261-43,ALTA VERAPAZ,COBAN,15.782796,-90.774096,EORM,COMUNIDAD SANTA MARTA PASUCUC
8,16-01-0340-43,ALTA VERAPAZ,COBAN,15.710957,-90.773815,EORM,COMUNIDAD SEMULTEQUEN RIO NEGRO
9,16-01-0257-43,ALTA VERAPAZ,COBAN,15.682332,-90.766395,EORM,ALDEA SAN PEDRO XALA-ROCJA
10,16-01-0376-43,ALTA VERAPAZ,COBAN,15.799005,-90.763664,EORM,CASERIO IXLOC SAN PEDRITO
11,16-01-1163-43,ALTA VERAPAZ,COBAN,15.732823,-90.763049,EORM,ALDEA SAN JOSE PE??A BLANCA
12,16-01-0460-41,ALTA VERAPAZ,COBAN,15.690264,-90.759793,COPB ANEXO A EORM,ALDEA PANTUYATE SAMECAN
13,16-01-0463-43,ALTA VERAPAZ,COBAN,15.690264,-90.759793,EORM,ALDEA PANTUYATE
14,16-01-0606-43,ALTA VERAPAZ,COBAN,15.818219,-90.759395,EORM,CASERIO SAN LORENZO IXMACHAN I
15,16-01-0190-42,ALTA VERAPAZ,COBAN,15.764724,-90.758088,EODP ANEXA A EORM,ALDEA ROC HA PASACUC
16,16-01-0341-43,ALTA VERAPAZ,COBAN,15.764724,-90.758088,EORM,ALDEA ROC HA PASACUC
17,16-01-0324-43,ALTA VERAPAZ,COBAN,15.727322,-90.755532,EORM,COMUNIDAD SANTA ANITA
18,16-01-1164-43,ALTA VERAPAZ,COBAN,15.698875,-90.752496,EORM,ALDEA SA MULTEQUEN II
19,16-01-0212-42,ALTA VERAPAZ,COBAN,15.780105,-90.752348,EODP ALDEA SA UCHIL,ALDEA SA UCHIL
20,16-01-0213-42,ALTA VERAPAZ,COBAN,15.780105,-90.752348,EODP,COMUNIDAD SANTA ANITA
21,16-01-0317-43,ALTA VERAPAZ,COBAN,15.780105,-90.752348,EORM COMUNIDAD SAN SEBASTIAN EL CAOBA,COMUNIDAD SAN SEBASTIAN EL CAOBA
22,16-01-0178-41,ALTA VERAPAZ,COBAN,15.833039,-90.752343,COPB,ALDEA IXLOC
23,16-01-0318-43,ALTA VERAPAZ,COBAN,15.833039,-90.752343,EORM,"ALDEA IXLOC, SALAGUIN"
24,16-01-0348-43,ALTA VERAPAZ,COBAN,15.704728,-90.749558,EORM,PARCELAMIENTO SALAGUNA
25,16-01-0259-43,ALTA VERAPAZ,COBAN,15.745998,-90.743461,EORM,ALDEA CHINAMOCOCH
26,16-01-0071-43,ALTA VERAPAZ,COBAN,15.889547,-90.741643,EORM,ALDEA SAHOLOM
27,16-01-2952-41,ALTA VERAPAZ,COBAN,15.889547,-90.741643,COPB ANEXO A EORM,ALDEA SAHOLOM
28,16-01-0385-43,ALTA VERAPAZ,COBAN,15.759214,-90.739508,EORM,ALDEA UNION BUENA VISTA
29,16-01-0386-43,ALTA VERAPAZ,COBAN,15.686347,-90.737016,EORM,ALDEA LAS MERCEDES PASACUC
30,16-01-0179-41,ALTA VERAPAZ,COBAN,15.796675,-90.728922,COPB ANEXO A EORM,CASERIO ROCJA PURIBAL
31,16-01-0256-43,ALTA VERAPAZ,COBAN,15.796675,-90.728922,EORM,ALDEA ROC-HA PURIBAL
32,16-01-0277-43,ALTA VERAPAZ,COBAN,15.77643,-90.728178,EORM BALDIO XALACHE,BALDIO XALACHE
33,16-01-0625-41,ALTA VERAPAZ,COBAN,15.77643,-90.728178,COPB ANEXO A EORM,COMUNIDAD SANTA ELENA SATALOX
34,16-01-0382-43,ALTA VERAPAZ,COBAN,15.955651,-90.726571,EORM ALDEA SA UCHIL,ALDEA SA UCHIL
35,16-01-0200-42,ALTA VERAPAZ,COBAN,15.902097,-90.725371,EODP,"COMUNIDAD EL ZAPOTAL II, MACHACJA"
36,16-01-0316-43,ALTA VERAPAZ,COBAN,15.902097,-90.725371,EORM,"COMUNIDAD EL ZAPOTAL II, MACHACJA"
37,16-07-0199-43,ALTA VERAPAZ,PANZOS,15.902097,-90.725371,EORM,PARCELAMIENTO AJ RALCHOCH QOTOX HA II
38,16-01-0197-42,ALTA VERAPAZ,COBAN,15.859957,-90.725051,EODP,COMUNIDAD BEMPEC EL CASTAQO
39,16-01-0356-43,ALTA VERAPAZ,COBAN,15.859957,-90.725051,EORM,COMUNIDAD BEMPEC EL CASTAQO
40,16-01-0329-43,ALTA VERAPAZ,COBAN,15.733544,-90.723944,EORM ALDEA DE COPALA,ALDEA DE COPALA
41,16-01-0180-41,ALTA VERAPAZ,COBAN,15.952769,-90.721756,COPB,BALDIO ZAPOTAL I
42,16-01-0247-43,ALTA VERAPAZ,COBAN,15.952769,-90.721756,EORM,BALDIO ZAPOTAL I
43,16-01-0203-42,ALTA VERAPAZ,COBAN,15.751762,-90.721726,EODP,ALDEA SAJACOC XALASUTZUL
44,16-01-0278-43,ALTA VERAPAZ,COBAN,15.751762,-90.721726,EORM,ALDEA SAJACOC XALASUTZUL
45,16-01-1165-43,ALTA VERAPAZ,COBAN,15.772929,-90.719168,EORM,ALDEA LAGUNA CHIQUITA
46,16-01-0176-41,ALTA VERAPAZ,COBAN,15.793166,-90.71908,COPB A EORM,COMUNIDAD SAN JOSE SAYHA
47,16-01-0252-43,ALTA VERAPAZ,COBAN,15.793166,-90.71908,EORM,COMUNIDAD SAN JOSE SAYHA
48,16-01-8529-42,ALTA VERAPAZ,COBAN,15.844851,-90.718137,ESCUELA DE EDUCACION ESPECIAL Y CENTRO DE REHABILITACION INTEGRAL,6A AV. 11-80 ZONA 12
49,16-01-0068-43,ALTA VERAPAZ,COBAN,15.844851,-90.718137,EORM,ALDEA SALACUIM
50,16-01-0615-43,ALTA VERAPAZ,COBAN,15.844851,-90.718137,EORM,CASERIO NUEVA LA CEIBA IXILA
51,16-01-1519-42,ALTA VERAPAZ,COBAN,15.844851,-90.718137,EODP,6A AVE. 6-62 ZONA 11 BARRIO SAN MARCOS
52,16-01-8454-41,ALTA VERAPAZ,COBAN,15.844851,-90.718137,COPB ANEXO A EORM,ALDEA SALACUIM
53,16-01-0258-43,ALTA VERAPAZ,COBAN,15.713086,-90.709733,EORM,CASERIO SANTA ELENA SATOLOOX
54,16-01-0624-41,ALTA VERAPAZ,COBAN,15.713086,-90.709733,COPB ANEXO A EORM,COMUNIDAD LA LIBERTAD XALA-ROCJA
55,16-01-0233-43,ALTA VERAPAZ,COBAN,15.781381,-90.708333,EORM,COMUNIDAD SAN LORENZO II
56,16-01-0363-43,ALTA VERAPAZ,COBAN,15.744989,-90.705664,EORM,ALDEA CERRO ALTO MONTE CRISTO
57,16-01-0388-43,ALTA VERAPAZ,COBAN,15.74855,-90.699398,EORM ALDEA CHICHUT,ALDEA CHICHUT
58,16-01-7334-43,ALTA VERAPAZ,COBAN,15.984044,-90.697839,EORM,"ALDEA COPAL ""AA"" LA ESPERANZA"
59,"16-01-7335-43
16-01-7336-41",ALTA VERAPAZ,COBAN,15.984044,-90.697839,COPB ANEXO EORM,"ALDEA COPAL ""AA"" LA ESPERANZA"
60,16-03-0059-41,ALTA VERAPAZ,SAN CRISTOBAL VERAPAZ,15.420413,-90.696402,COPB ANEXO A EORM,CASERIO NUEVO PANCOX
61,16-03-0205-43,ALTA VERAPAZ,SAN CRISTOBAL VERAPAZ,15.420413,-90.696402,EORM,ALDEA NAVIDAD
62,16-03-0061-41,ALTA VERAPAZ,SAN CRISTOBAL VERAPAZ,15.40172,-90.693682,COPB ANEXO A EORM,ALDEA SANTA MARIA
63,16-03-0223-43,ALTA VERAPAZ,SAN CRISTOBAL VERAPAZ,15.40172,-90.693682,EORM,CASERIO EL CEDRAL
64,16-01-0384-43,ALTA VERAPAZ,COBAN,16.002291,-90.691014,EORM CASERIO NUEVO AMANECER,CASERIO NUEVO AMANECER
65,16-01-0633-41,ALTA VERAPAZ,COBAN,16.002291,-90.691014,COPB ANEXO A EORM,ALDEA SAN FRANCISCO DEL RIO
66,16-01-0325-43,ALTA VERAPAZ,COBAN,15.761343,-90.687036,EORM COMUNIDAD GANCHO CAOBA,COMUNIDAD GANCHO CAOBA
67,16-03-6710-43,ALTA VERAPAZ,SAN CRISTOBAL VERAPAZ,15.40126,-90.686323,EORM,CASERIO PANTZIMAJ
68,16-01-0326-43,ALTA VERAPAZ,COBAN,15.719198,-90.682822,EORM,COMUNIDAD LAS CONCHAS
69,16-01-0207-42,ALTA VERAPAZ,COBAN,15.686754,-90.68178,EODP,ALDEA LA CUMBRE SEPACAY
70,16-01-0335-43,ALTA VERAPAZ,COBAN,15.686754,-90.68178,EORM ALDEA LAS CUMBRE SEPACAY,ALDEA LA CUMBRE SEPACAY
71,16-01-0175-41,ALTA VERAPAZ,COBAN,15.955318,-90.680463,COPB,ALDEA SAN MARCOS
72,16-01-0310-43,ALTA VERAPAZ,COBAN,15.955318,-90.680463,EORM,ALDEA SAN MARCOS
73,16-03-0026-43,ALTA VERAPAZ,SAN CRISTOBAL VERAPAZ,15.394586,-90.679673,EORM CASERIO PANJUX,CASERIO PANJUX
74,16-03-0187-41,ALTA VERAPAZ,SAN CRISTOBAL VERAPAZ,15.380609,-90.67721,COPB ANEXO A EORM,ALDEA CHICUZ
75,16-03-0224-43,ALTA VERAPAZ,SAN CRISTOBAL VERAPAZ,15.380609,-90.67721,EORM,ALDEA CHICUZ
76,16-01-0260-43,ALTA VERAPAZ,COBAN,15.737964,-90.676966,EORM,ALDEA CUXPEMECH COPALHA
77,16-01-0218-42,ALTA VERAPAZ,COBAN,16.00333,-90.675052,EODP ALDEA IXILA SAMUTZ,ALDEA IXILA SAMUTZ
78,16-01-0219-43,ALTA VERAPAZ,COBAN,16.00333,-90.675052,EORM,ALDEA EL TRIUNFO NUEVE CERROS
79,16-01-0312-43,ALTA VERAPAZ,COBAN,15.79047,-90.67356,EORM,COMUNIDAD SAMUY II
80,16-01-0163-41,ALTA VERAPAZ,COBAN,15.980187,-90.673555,COPB COMUNIDAD LAS PROMESAS NUEVE CERROS,ALDEA LAS PROMESAS NUEVE CERROS
81,16-01-0250-43,ALTA VERAPAZ,COBAN,15.980187,-90.673555,EORM,ALDEA LAS PROMESAS NUEVE CERROS
82,16-01-0378-43,ALTA VERAPAZ,COBAN,15.79892,-90.672185,EORM,COMUNIDAD MONTE SINAI
83,16-01-0631-41,ALTA VERAPAZ,COBAN,15.79892,-90.672185,COPB ANEXO A EORM,ALDEA SAN BENITO II
84,16-01-0344-43,ALTA VERAPAZ,COBAN,15.749299,-90.669934,EORM COMUNIDAD SAN JOSE PE??A BLANCA,COMUNIDAD SAN JOSE PE??A BLANCA
85,16-03-0003-41,ALTA VERAPAZ,SAN CRISTOBAL VERAPAZ,15.424618,-90.662557,COPB CASERIO PANBON GRANDE,CASERIO PAMBON GRANDE
86,16-03-0010-43,ALTA VERAPAZ,SAN CRISTOBAL VERAPAZ,15.424618,-90.662557,EORM,CASERIO PANBON GRANDE
87,16-01-0296-43,ALTA VERAPAZ,COBAN,15.651906,-90.660234,EORM ALDEA PAQUISIL,CASERIO PAQUISIL
88,16-01-0517-41,ALTA VERAPAZ,COBAN,15.651906,-90.660234,COPB ANEXO A EORM,COMUNIDAD SAPOX
89,16-01-0029-41,ALTA VERAPAZ,COBAN,15.68644,-90.653229,COPB ANEXO A EORM,CASERIO SESAJAB I
90,16-01-2029-43,ALTA VERAPAZ,COBAN,15.68644,-90.653229,EORM,CASERIO SESAJAB I
91,16-01-0160-41,ALTA VERAPAZ,COBAN,15.980091,-90.64976,COPB ANEXO A EODP FEDERICO FROEBEL,3A AVE. 2-35 ZONA 1
92,16-01-0161-41,ALTA VERAPAZ,COBAN,15.980091,-90.64976,COPB,SANTA CRUZ EL NACIMIENTO
93,16-01-0255-43,ALTA VERAPAZ,COBAN,15.980091,-90.64976,EORM,COMUNIDAD SANTA CRUZ EL NACIMIENTO
94,16-03-0062-41,ALTA VERAPAZ,SAN CRISTOBAL VERAPAZ,15.385652,-90.648792,COPB ANEXO A EORM,CASERIO EL CEDRAL
95,16-03-1405-43,ALTA VERAPAZ,SAN CRISTOBAL VERAPAZ,15.385652,-90.648792,EORM,CASERIO WACHQ OOB
96,16-01-0357-43,ALTA VERAPAZ,COBAN,15.639661,-90.645568,EORM COMUNIDAD NUEVA PACQUIUL,COMUNIDAD NUEVA PACQUIUL
97,16-01-0189-42,ALTA VERAPAZ,COBAN,15.744506,-90.645185,EODP COMUNIDAD LA SULTANA,COMUNIDAD LA SULTANA
98,16-01-0292-43,ALTA VERAPAZ,COBAN,15.744506,-90.645185,EORM,COMUNIDAD LA SULTANA
99,16-01-0323-43,ALTA VERAPAZ,COBAN,15.76383,-90.645149,EORM,COMUNIDAD SEMUY I
100,16-01-0522-41,ALTA VERAPAZ,COBAN,15.76383,-90.645149,COPB ANEXO A EORM,COMUNIDAD NUEVAS LAS PACAYAS
101,16-01-0224-43,ALTA VERAPAZ,COBAN,15.705536,-90.637911,EORM CASERIO SESAJAB II,CASERIO SESAJAB II
102,16-01-0290-43,ALTA VERAPAZ,COBAN,16.030185,-90.63505,EORM,ALDEA TIERRA BLANCA CHIXOY
103,16-03-0173-41,ALTA VERAPAZ,SAN CRISTOBAL VERAPAZ,15.391748,-90.633307,COPB ANEXO A EORM,ALDEA QUEJA
104,16-03-0219-43,ALTA VERAPAZ,SAN CRISTOBAL VERAPAZ,15.391748,-90.633307,EORM,ALDEA QUEJA
105,16-03-0024-43,ALTA VERAPAZ,SAN CRISTOBAL VERAPAZ,15.443245,-90.630018,EORM CASERIO SAN SEBASTIAN EL REFUGIO,CASERIO SAN SEBASTIAN EL REFUGIO
106,16-03-0201-41,ALTA VERAPAZ,SAN CRISTOBAL VERAPAZ,15.458008,-90.629849,COPB ANEXO A EORM,CASERIO CUMBRE DE PAMUC
107,16-03-0204-43,ALTA VERAPAZ,SAN CRISTOBAL VERAPAZ,15.458008,-90.629849,EORM,CASERIO CUMBRE DE PAMUC
108,16-03-1573-42,ALTA VERAPAZ,SAN CRISTOBAL VERAPAZ,15.458008,-90.629849,EODP ANEXA A EOUV RENE ALBERTO CARDOZA BARAHONA,0 AVENIDA 7-03 ZONA 3
109,16-01-0031-41,ALTA VERAPAZ,COBAN,15.695688,-90.628643,COPB ANEXO A EORM,ALDEA CACAHUILA
110,16-01-0083-43,ALTA VERAPAZ,COBAN,15.695688,-90.628643,EORM,ALDEA CACAHUILA
111,16-01-0372-43,ALTA VERAPAZ,COBAN,16.016115,-90.628173,EORM,ALDEA TIERRA BLANCA SALINAS
112,16-01-0594-43,ALTA VERAPAZ,COBAN,15.633636,-90.628063,EORM,CASERIO DOLORES
113,16-01-0648-41,ALTA VERAPAZ,COBAN,15.633636,-90.628063,COPB ANEXA A EORM,CASERIO DOLORES
114,16-01-0251-43,ALTA VERAPAZ,COBAN,16.005525,-90.627962,EORM,COMUNIDAD PIE DEL CERRO
115,16-01-0003-41,ALTA VERAPAZ,COBAN,15.947342,-90.626659,COPB ANEXO A EORM,ALDEA SANTA LUCIA
116,16-01-0075-43,ALTA VERAPAZ,COBAN,15.947342,-90.626659,EORM,ALDEA SANTA LUCIA LACHUA
117,16-01-0279-43,ALTA VERAPAZ,COBAN,15.737971,-90.626512,EORM,COMUNIDAD ROCJATZIN
118,16-01-0551-43,ALTA VERAPAZ,COBAN,15.634969,-90.62602,EORM,ALDEA LA CEIBA DEL NORTE
119,16-02-9671-42,ALTA VERAPAZ,SANTA CRUZ VERAPAZ,15.47791,-90.62586,EODP,CASERIO SAQUIJA
120,16-03-0001-41,ALTA VERAPAZ,SAN CRISTOBAL VERAPAZ,15.47791,-90.62586,COPB ALDEA LA PROVIDENCIA,ALDEA LA PROVIDENCIA
121,16-03-0022-43,ALTA VERAPAZ,SAN CRISTOBAL VERAPAZ,15.47791,-90.62586,EORM,ALDEA LA PROVIDENCIA
122,16-03-1257-41,ALTA VERAPAZ,SAN CRISTOBAL VERAPAZ,15.47791,-90.62586,COPB ANEXO A EORM,FINCA SAN JOAQUIN
123,16-03-0175-41,ALTA VERAPAZ,SAN CRISTOBAL VERAPAZ,15.373213,-90.625124,COPB ANEXO A EORM,ALDEA SANTA ELENA
124,16-03-0221-43,ALTA VERAPAZ,SAN CRISTOBAL VERAPAZ,15.373213,-90.625124,EORM,ALDEA SANTA ELENA
125,16-03-8457-42,ALTA VERAPAZ,SAN CRISTOBAL VERAPAZ,15.373213,-90.625124,EODP ANEXA A EORM,ALDEA SANTA ELENA
126,16-03-0065-41,ALTA VERAPAZ,SAN CRISTOBAL VERAPAZ,15.366519,-90.622453,COPB ANEXO A EORM,CASERIO SANTA CRUZ DEL QUETZAL ALDEA RANCHO
127,16-03-9545-41,ALTA VERAPAZ,SAN CRISTOBAL VERAPAZ,15.366519,-90.622453,COPB ANEXO A EORM,CASERIO SAN SEBASTIAN EL REFUGIO
128,16-03-9649-43,ALTA VERAPAZ,SAN CRISTOBAL VERAPAZ,15.366519,-90.622453,EORM,CASERIO SANTA ROSA
129,16-01-0286-43,ALTA VERAPAZ,COBAN,15.620028,-90.621956,EORM COMUNIDAD XBEN TZUL CONOP III,COMUNIDAD XBEN TZUL CONOP III
130,16-03-0011-43,ALTA VERAPAZ,SAN CRISTOBAL VERAPAZ,15.442358,-90.620583,EORM CASERIO PANSAL,CASERIO PANSAL ALDEA MEXABAJ
131,16-01-0270-43,ALTA VERAPAZ,COBAN,15.634999,-90.619638,EORM CASERIO XBEN CONOP II,CASERIO XBEN CONOP II
132,16-03-0188-41,ALTA VERAPAZ,SAN CRISTOBAL VERAPAZ,15.430357,-90.618797,COPB ANEXO A EORM,ALDEA PAMPACHE
133,16-03-0227-43,ALTA VERAPAZ,SAN CRISTOBAL VERAPAZ,15.430357,-90.618797,EORM,ALDEA PAMPACCHE
134,16-01-0201-42,ALTA VERAPAZ,COBAN,15.600397,-90.617829,EODP COMUNIDAD CHAMA GRANDE,COMUNIDAD CHAMA GRANDE
135,16-01-0305-43,ALTA VERAPAZ,COBAN,15.600397,-90.617829,EORM COMUNIDAD CHAMA GRANDE,COMUNIDAD CHAMA GRANDE
136,16-07-0200-43,ALTA VERAPAZ,PANZOS,15.600397,-90.617829,ESCUELA OFICIAIL RURAL MIXTA,COMUNIDAD NUEVA JERUSALEM EL RODEO
137,16-01-0174-41,ALTA VERAPAZ,COBAN,15.86154,-90.617754,COPB,ALDEA ROCJA PONTILA
138,16-01-0311-43,ALTA VERAPAZ,COBAN,15.86154,-90.617754,EORM,ALDEA ROCJA PONTILA
139,16-01-6644-43,ALTA VERAPAZ,COBAN,15.706729,-90.614657,EORM,CASERIO EL COROZAL
140,16-03-0039-41,ALTA VERAPAZ,SAN CRISTOBAL VERAPAZ,15.39082,-90.613428,COPB ANEXA A EORM,EL ZACATON
141,16-03-0225-43,ALTA VERAPAZ,SAN CRISTOBAL VERAPAZ,15.39082,-90.613428,EORM,CASERIO SAQUIXIM
142,16-01-0338-43,ALTA VERAPAZ,COBAN,16.022775,-90.61285,EORM,COMUNIDAD TIERRA BLANCA SEBOL
143,16-01-8861-42,ALTA VERAPAZ,COBAN,15.723765,-90.612845,EODP,2A. AVENIDA 10-71 ZONA 8 CANTON LAS CASAS
144,16-01-9040-43,ALTA VERAPAZ,COBAN,15.723765,-90.612845,EORM,CASERIO ESPERANZA LEAL
145,16-01-9903-41,ALTA VERAPAZ,COBAN,15.723765,-90.612845,COPB ANEXO A EORM,COMUNIDAD ESPERANZA LEAL
146,16-01-0332-43,ALTA VERAPAZ,COBAN,15.583276,-90.611847,EORM COMUNIDAD YALSEC ZAPUR,COMUNIDAD YALSEC ZAPUR
147,16-01-0289-43,ALTA VERAPAZ,COBAN,16.024323,-90.610749,EORM,COMUNIDAD LA ISLA DE LAS TORTUGAS
148,16-01-0131-43,ALTA VERAPAZ,COBAN,15.909946,-90.609034,EORM,ALDEA RIO TZETOC
149,16-01-1528-41,ALTA VERAPAZ,COBAN,15.909946,-90.609034,COPB ANEXO A EORM,ALDEA RIO TZETOC
150,16-01-0208-42,ALTA VERAPAZ,COBAN,15.553276,-90.608708,EODP COMUNIDAD SACRABINHA,COMUNIDAD SACRABINHA
151,16-01-0328-43,ALTA VERAPAZ,COBAN,15.553276,-90.608708,EORM COMUNIDAD SACRABINHA,COMUNIDAD SACRABINHA
152,16-01-0614-43,ALTA VERAPAZ,COBAN,15.635672,-90.606534,EORM,CASERIO SECAAK EL RETIRO
153,16-01-0171-42,ALTA VERAPAZ,COBAN,15.784346,-90.605419,EODP COMUNIDAD PATATE ICBOLAY,CASERIO PATATE ICBOLAY
154,16-01-0229-43,ALTA VERAPAZ,COBAN,15.784346,-90.605419,EORM CASERIO PATATE ICBOLAY,CASERIO PATATE ICBOLAY
155,16-03-0177-41,ALTA VERAPAZ,SAN CRISTOBAL VERAPAZ,15.427018,-90.605166,COPB ANEXO A EORM,ALDEA MEXABAJ
156,16-03-0226-43,ALTA VERAPAZ,SAN CRISTOBAL VERAPAZ,15.427018,-90.605166,EORM,ALDEA MEXABAJ
157,16-01-0216-42,ALTA VERAPAZ,COBAN,15.647152,-90.604916,EODP COMUNIDAD SAACTE,COMUNIDAD SAACTE
158,16-01-0366-43,ALTA VERAPAZ,COBAN,15.647152,-90.604916,EORM ALDEA IXILA SAMUTZ,ALDEA IXILA SAMUTZ
159,16-01-0206-42,ALTA VERAPAZ,COBAN,15.911296,-90.604472,EODP ALDEA RIO TZETOC,ALDEA RIO TZETOC
160,16-01-0226-43,ALTA VERAPAZ,COBAN,15.911296,-90.604472,EORM ALDEA RIO TZETOC,ALDEA RIO TZETOC
161,16-07-0204-43,ALTA VERAPAZ,PANZOS,15.911296,-90.604472,EORM,PARCELAMIENTO NUEVA SANTA CRUZ
162,16-01-0223-43,ALTA VERAPAZ,COBAN,15.800708,-90.603109,EORM COMUNIDAD LAS LAGUNAS DEL FAISAN,COMUNIDAD LAS LAGUNAS EL FAISAN
163,16-01-0360-43,ALTA VERAPAZ,COBAN,15.5268,-90.60223,EORM COMUNIDAD SAWACHIL II,COMUNIDAD SAWACHIL II
164,16-01-0302-43,ALTA VERAPAZ,COBAN,15.609093,-90.601667,EORM CASERIO CHAMA CONOP,CASERIO CHAMA CONOP
165,16-01-0263-43,ALTA VERAPAZ,COBAN,15.756644,-90.598468,EORM COMUNIDAD SACOYOU,ALDEA SACOYOU
166,16-01-0503-41,ALTA VERAPAZ,COBAN,15.756644,-90.598468,COPB ANEXO A EORM,COMUNIDAD SACTATE
167,16-01-0336-43,ALTA VERAPAZ,COBAN,15.77491,-90.597582,EORM COOPERATIVA YALCHACTI,COOPERATIVA YALCHACTI
168,16-01-0533-41,ALTA VERAPAZ,COBAN,15.77491,-90.597582,COPB ANEXO A EORM,COMUNIDAD ROCJA UCHIL
169,16-01-0368-43,ALTA VERAPAZ,COBAN,15.518656,-90.596892,EORM CASERIO SAN ISIDRO LAS PACAYAS,CASERIO SAN ISIDRO LAS PACAYAS
170,16-03-0025-43,ALTA VERAPAZ,SAN CRISTOBAL VERAPAZ,15.498546,-90.596789,EORM CASERIO QUIXALITO,CASERIO QUIXALITO
171,16-01-0303-43,ALTA VERAPAZ,COBAN,15.702462,-90.596297,EORM ALDEA CANIHA II,ALDEA CANIHA II
172,16-01-0494-41,ALTA VERAPAZ,COBAN,15.702462,-90.596297,COPB ANEXO A EORM,ALDEA SAN JOSE SACALA
173,16-03-0021-43,ALTA VERAPAZ,SAN CRISTOBAL VERAPAZ,15.466281,-90.595569,EORM COMUNIDAD DE PAMPUR,CASERIO PAMPUR ALDEA LA PROVIDENCIA
174,16-01-0235-43,ALTA VERAPAZ,COBAN,15.571721,-90.595167,EORM COMUNIDAD SATA??O,COMUNIDAD SATA??O I
175,16-01-0695-43,ALTA VERAPAZ,COBAN,15.718714,-90.59204,EORM,PARAJE LA FLECHA CANGUINIC
176,16-01-0696-41,ALTA VERAPAZ,COBAN,15.718714,-90.59204,COPB,PARAJE LA FLECHA CANGUINIC
177,16-03-0006-42,ALTA VERAPAZ,SAN CRISTOBAL VERAPAZ,15.422446,-90.591241,"EODP CASERIO CHIPOZO, ALDEA MEXABAJ",CASERIO CHIPOZO ALDEA MEXABAJ
178,16-03-0015-43,ALTA VERAPAZ,SAN CRISTOBAL VERAPAZ,15.422446,-90.591241,"EORM CASERIO CHIPOZO, ALDEA MEXABAJ","CASERIO CHIPOZO, ALDEA MEXABAJ"
179,16-01-0304-43,ALTA VERAPAZ,COBAN,15.678576,-90.589658,EORM ALDEA CANIHA I,ALDEA CANIHA I
180,16-01-0380-43,ALTA VERAPAZ,COBAN,15.635734,-90.588601,EORM ALDEA SUMILA,ALDEA SUMILA
181,16-01-0245-43,ALTA VERAPAZ,COBAN,16.012508,-90.588231,EORM COMUNIDAD SANTA MARTA SALINAS,ALDEA SANTA MARTA SALINAS
182,16-01-0362-43,ALTA VERAPAZ,COBAN,15.636247,-90.587544,EORM COMUNIDAD BORDO ALTO,COMUNIDAD BORDO ALTO
183,16-01-0194-41,ALTA VERAPAZ,COBAN,15.975196,-90.58625,COPB,ALDEA LAS TORTUGAS
184,16-01-0365-43,ALTA VERAPAZ,COBAN,15.975196,-90.58625,EORM,ALDEA LAS TORTUGAS
185,16-13-0079-43,ALTA VERAPAZ,CHISEC,15.882514,-90.585762,EORM COMUNIDAD SAN LUIS CHIQUITO,COMUNIDAD SAN LUIS CHIQUITO
186,16-01-0199-42,ALTA VERAPAZ,COBAN,15.826964,-90.58395,EODP,COMUNIDAD EL FAISAN II
187,16-01-0264-43,ALTA VERAPAZ,COBAN,15.826964,-90.58395,EORM,COMUNIDAD FAISAN II
188,16-07-0198-43,ALTA VERAPAZ,PANZOS,15.826964,-90.58395,EORM,COMUNIDAD INDIGENA NUEVO AMANECER
189,16-01-0367-43,ALTA VERAPAZ,COBAN,15.942897,-90.583556,EORM,ALDEA SAN BENITO II
190,16-01-0630-41,ALTA VERAPAZ,COBAN,15.942897,-90.583556,COPB ANEXO A EORM,ALDEA YALICAR 15 DE SEPTIEMBRE
191,16-01-0339-43,ALTA VERAPAZ,COBAN,15.980957,-90.58126,EORM,CASERIO SAN JORGE LA UNION
192,16-01-0069-43,ALTA VERAPAZ,COBAN,15.946468,-90.580591,EORM,ALDEA SAN BENITO I
193,16-01-6835-41,ALTA VERAPAZ,COBAN,15.946468,-90.580591,COPB ANEXO A EORM,ALDEA SAN BENITO I
194,16-01-0308-43,ALTA VERAPAZ,COBAN,15.744158,-90.580408,EORM ALDEA CHAQUI ROCJA SETANA,ALDEA CHAQUI ROCJA SETA??A
195,"01-08-1558-43
16-01-0351-43",ALTA VERAPAZ,COBAN,15.75495,-90.579282,EORM,COMUNIDAD ROCJA UCHIL
196,16-01-0529-41,ALTA VERAPAZ,COBAN,15.75495,-90.579282,COPB ANEXO A EORM,COMUNIDAD CHAJMACAN
197,16-01-0294-43,ALTA VERAPAZ,COBAN,15.562841,-90.578729,"EORM COMUNIDAD SACHAL, ANEXO COOPERATIVA SAMAC","COMUNIDAD SACHAL, ANEXO COOPERATIVA SAMAC"
198,16-01-0394-43,ALTA VERAPAZ,COBAN,15.562841,-90.578729,EORM,ALDEA VISTA HERMOSA SACUMUM
199,16-01-0534-41,ALTA VERAPAZ,COBAN,15.562841,-90.578729,COPB ANEXO A EORM,COOPERATIVA YALCHACTI
200,16-03-0178-41,ALTA VERAPAZ,SAN CRISTOBAL VERAPAZ,15.372569,-90.578387,COPB ANEXO A EORM,ALDEA BALEU
201,16-03-0222-43,ALTA VERAPAZ,SAN CRISTOBAL VERAPAZ,15.372569,-90.578387,EORM,ALDEA BALEU
202,16-03-0053-43,ALTA VERAPAZ,SAN CRISTOBAL VERAPAZ,15.418667,-90.577016,EORM NO. 2,ALDEA CHIYUC
203,16-03-0058-43,ALTA VERAPAZ,SAN CRISTOBAL VERAPAZ,15.418667,-90.577016,EORM,CASERIO PANCASEUB
204,16-01-0192-42,ALTA VERAPAZ,COBAN,15.675119,-90.576831,EODP COMUNIDAD SAPALAU SAMUTZI,COMUNIDAD SAPALAU SAMUTZI
205,16-01-0234-43,ALTA VERAPAZ,COBAN,15.675119,-90.576831,EORM COMUNIDAD SAPALAU SAMUTZI,COMUNIDAD SAPALAU SAMUTZI
206,16-03-0016-43,ALTA VERAPAZ,SAN CRISTOBAL VERAPAZ,15.427584,-90.575247,EORM,"CASERIO PANHUX, ALDEA EL RANCHO"
207,16-03-0045-41,ALTA VERAPAZ,SAN CRISTOBAL VERAPAZ,15.42748,-90.5751,COPB ANEXO A EORM,CASERIO AGUA BLANCA SANTA MARIA
208,16-01-0359-43,ALTA VERAPAZ,COBAN,15.533818,-90.574008,EORM COMUNIDAD SAWACHIL I,COMUNIDAD SAWACHIL I
209,16-13-0080-43,ALTA VERAPAZ,CHISEC,15.903424,-90.573433,EORM COMUNIDAD SAN LUIS ICBOLAY,COMUNIDAD SAN LUIS ICBOLAY
210,16-01-0241-43,ALTA VERAPAZ,COBAN,15.788051,-90.572106,EORM COMUNIDAD ROKJA SATZAC,COMUNIDAD ROCJA TZAC
211,16-01-0524-41,ALTA VERAPAZ,COBAN,15.788051,-90.572106,COPB ANEXO A EORM,CASERIO SEMUY I
212,16-01-0550-43,ALTA VERAPAZ,COBAN,15.82401,-90.567853,EORM,ALDEA BALBATZUL II
213,16-03-0231-43,ALTA VERAPAZ,SAN CRISTOBAL VERAPAZ,15.41906,-90.566153,EORM,CASERIO CHIGUORRON
214,16-03-1125-41,ALTA VERAPAZ,SAN CRISTOBAL VERAPAZ,15.41906,-90.566153,COPB ANEXO A EORM,ALDEA CHIGUORRON
215,16-01-0314-43,ALTA VERAPAZ,COBAN,15.568254,-90.565814,EORM COMUNIDAD CHIRREMOX SACOC I,COMUNIDAD CHIRREMOX SACOC I
216,16-03-0017-43,ALTA VERAPAZ,SAN CRISTOBAL VERAPAZ,15.46927,-90.564832,"EORM CASERIO SANTA CRUZ DEL QUETZAL, ALDEA RANCHO","2AV. ZONA 3 BARRIO SAN CRISTOBAL CASERIO SANTA CRUZ DEL QUETZAL, ALDEA RANCHO"
217,16-03-0064-41,ALTA VERAPAZ,SAN CRISTOBAL VERAPAZ,15.46927,-90.564832,COPB ANEXO A EORM,CASERIO PANCASEUB
218,16-01-0191-42,ALTA VERAPAZ,COBAN,15.719811,-90.564029,EODP,COMUNIDAD SECAK CUXCALA
219,16-01-0274-43,ALTA VERAPAZ,COBAN,15.719811,-90.564029,EORM,COMUNIDAD SECAK CUXCALA
220,16-03-0018-43,ALTA VERAPAZ,SAN CRISTOBAL VERAPAZ,15.444887,-90.564018,"EORM CASERIO PANBONCITO, ALDEA EL RANCHO","CASERIO PANBONCITO, ALDEA EL RANCHO"
221,16-03-0038-43,ALTA VERAPAZ,SAN CRISTOBAL VERAPAZ,15.369312,-90.562970000000007,EORM,PAMPULUJ
222,16-03-0234-43,ALTA VERAPAZ,SAN CRISTOBAL VERAPAZ,15.369312,-90.562970000000007,EORM,CASERIO EL ZACATON
223,16-01-0349-43,ALTA VERAPAZ,COBAN,15.515709,-90.562918,EORM ALDEA SEMUC,ALDEA SEMUC
224,16-01-0371-43,ALTA VERAPAZ,COBAN,15.644254,-90.559202,EORM ALDEA CANIHAB SEBOB,ALDEA CANIHAB SEBOB
225,16-01-0544-41,ALTA VERAPAZ,COBAN,15.644254,-90.559202,COPB ANEXO A EORM,PALO GRANDE LOS COCALES
226,16-03-0228-43,ALTA VERAPAZ,SAN CRISTOBAL VERAPAZ,15.343543,-90.558585,EORM,FINCA SAN JOAQUIN
227,16-01-0188-41,ALTA VERAPAZ,COBAN,15.582232,-90.557046,COPB COMUNIDAD CHIRREMOX TEMAL,COMUNIDAD CHIRREMOX TEMAL
228,16-01-0313-43,ALTA VERAPAZ,COBAN,15.582232,-90.557046,EORM COMUNIDAD CHIRREMOX TEMAL,COMUNIDAD CHIRREMOX TEMAL
229,16-01-0358-43,ALTA VERAPAZ,COBAN,15.609949,-90.555591,EORM COMUNIDAD SABAIL,COMUNIDAD SABAIL
230,16-03-6096-43,ALTA VERAPAZ,SAN CRISTOBAL VERAPAZ,15.380895,-90.554475,EORM,CASERIO AQUIL PEQUE??O
231,16-03-8511-41,ALTA VERAPAZ,SAN CRISTOBAL VERAPAZ,15.380895,-90.554475,COPB ANEXO EORM,CASERIO AQUIL PEQUE??O ALDEA AQUIL
232,16-03-0002-41,ALTA VERAPAZ,SAN CRISTOBAL VERAPAZ,15.415124,-90.554401,"COPB COMUNIDAD CERRO VERDE, ALDEA EL RANCHO",COMUNIDAD CERRO VERDE
233,16-03-0012-43,ALTA VERAPAZ,SAN CRISTOBAL VERAPAZ,15.415124,-90.554401,"EORM COMUNIDAD CERRO VERDE, ALDEA EL RANCHO",CASERIO CERRO VERDE ALDEA EL RANCHO
234,16-01-0002-41,ALTA VERAPAZ,COBAN,15.943223,-90.551565,COPB ANEXO A EORM,ALDEA SAN JOSE ICBOLAY
235,16-01-0067-43,ALTA VERAPAZ,COBAN,15.943223,-90.551565,EORM,ALDEA SAN JOSE ICBOLAY
236,16-01-6643-43,ALTA VERAPAZ,COBAN,15.679809,-90.551021,EORM,COMUNIDAD SAN LUCAS SAMOX
237,16-01-8193-41,ALTA VERAPAZ,COBAN,15.679809,-90.551021,COPB ANEXO EORM,COMUNIDAD SAN LUCAS SAMOX
238,16-03-0063-41,ALTA VERAPAZ,SAN CRISTOBAL VERAPAZ,15.42848,-90.55092,COPB ANEXO A EORM,CASERIO CHEPENAL ALDEA QUEJA
239,16-01-0315-43,ALTA VERAPAZ,COBAN,15.555872,-90.548934,EORM COMUNIDAD CHIRREMOX SACOC II,COMUNIDAD CHIRREMOX SACOC II
240,16-03-0004-41,ALTA VERAPAZ,SAN CRISTOBAL VERAPAZ,15.369407,-90.547347,"COPB CASERIO EL ALFILER, ALDEA AQUIL",CASERIO EL ALFILER ALDEA AQUIL
241,16-03-0014-43,ALTA VERAPAZ,SAN CRISTOBAL VERAPAZ,15.369407,-90.547347,EORM,"CASERIO EL ALFILER, ALDEA AQUIL"
242,16-01-0342-43,ALTA VERAPAZ,COBAN,15.532618,-90.547187,EORM COMUNIDAD XALABE SABOB,COMUNIDAD XALABE SABOB
243,16-03-0005-42,ALTA VERAPAZ,SAN CRISTOBAL VERAPAZ,15.444643,-90.546781,EODP COMUNIDAD DE GUACHCUZ,CASERIO GUACHCUZ
244,16-03-0019-43,ALTA VERAPAZ,SAN CRISTOBAL VERAPAZ,15.444643,-90.546781,EORM COMUNIDAD DE GUACHCUZ,CASERIO GUACHCUZ ALDEA EL RANCHO
245,16-03-0179-41,ALTA VERAPAZ,SAN CRISTOBAL VERAPAZ,15.377887,-90.546493,COPB ANEXO A EORM,ALDEA AQUIL GRANDE
246,16-03-0214-43,ALTA VERAPAZ,SAN CRISTOBAL VERAPAZ,15.377887,-90.546493,EORM,ALDEA AQUIL GRANDE
247,16-03-0186-41,ALTA VERAPAZ,SAN CRISTOBAL VERAPAZ,15.423742,-90.545608,COPB ANEXO A EORM,ALDEA EL RANCHO
248,16-03-0216-43,ALTA VERAPAZ,SAN CRISTOBAL VERAPAZ,15.423742,-90.545608,EORM,ALDEA EL RANCHO
249,16-01-0280-43,ALTA VERAPAZ,COBAN,15.951651,-90.545234,EORM,ALDEA SAN LUIS PLAYA GRANDE
250,16-01-0281-43,ALTA VERAPAZ,COBAN,15.951651,-90.545234,EORM,CASERIO ENTRE RIOS
251,16-01-0370-43,ALTA VERAPAZ,COBAN,15.994917,-90.544931,EORM,CASERIO SENUJA
252,16-03-0023-43,ALTA VERAPAZ,SAN CRISTOBAL VERAPAZ,15.410472,-90.544686,EORM,CASERIO CHISIGUAN
253,16-03-0189-41,ALTA VERAPAZ,SAN CRISTOBAL VERAPAZ,15.410472,-90.544686,COPB ANEXO A EORM,CASERIO CHIYEY
254,16-01-0165-41,ALTA VERAPAZ,COBAN,15.795124,-90.543949,COPB COMUNIDAD SACTELA,COMUNIDAD SACTELA
255,16-01-0268-43,ALTA VERAPAZ,COBAN,15.795124,-90.543949,EORM CASERIO SACTELA,CASERIO SACTELA
256,16-01-0265-43,ALTA VERAPAZ,COBAN,15.727143,-90.543638,EORM COMUNIDAD UCULA,COMUNIDAD UCULA
257,16-01-0537-41,ALTA VERAPAZ,COBAN,15.727143,-90.543638,COPB ANEXO A EORM,COMUNIDAD SACHAL ANEXO COOPERATIVA SAMAC
258,16-01-0333-43,ALTA VERAPAZ,COBAN,15.707909,-90.543449,EORM,COMUNIDAD ROCJA SAWACHIL
259,16-13-0093-43,ALTA VERAPAZ,CHISEC,15.938848,-90.542627,EORM COMUNIDAD LAS PROMESAS I,COMUNIDAD LAS PROMESAS I
260,16-01-0361-43,ALTA VERAPAZ,COBAN,15.970517,-90.541652,EORM,ALDEA YALICAR 15 DE SEPTIEMBRE
261,16-01-0629-41,ALTA VERAPAZ,COBAN,15.970517,-90.541652,COPB ANEXO A EORM,COMUNIDAD SAN LUIS PALO GRANDE
262,16-01-0541-41,ALTA VERAPAZ,COBAN,15.972185,-90.54137,COPB ANEXO A EORM,ALDEA BALBATZUL II
263,16-01-0554-43,ALTA VERAPAZ,COBAN,15.972185,-90.54137,EORM,ALDEA LAGUNA CUCUXILA
264,16-01-0556-43,ALTA VERAPAZ,COBAN,15.972185,-90.54137,EORM,ALDEA PALO GRANDE LOS COCALES
265,16-01-0545-41,ALTA VERAPAZ,COBAN,15.794734,-90.539568,COPB ANEXO A EORM,ALDEA CANIHAB SEBOB
266,16-01-0547-43,ALTA VERAPAZ,COBAN,15.794734,-90.539568,EORM,ALDEA BELLA VISTA SACTELA
267,16-01-0211-42,ALTA VERAPAZ,COBAN,15.778734,-90.539274,EODP ALDEA CHICHUT,ALDEA CHICHUT
268,16-01-0381-43,ALTA VERAPAZ,COBAN,15.778734,-90.539274,EORM CASERIO XBEN CONOP I,CASERIO XBEN CONOP I
269,16-01-0204-42,ALTA VERAPAZ,COBAN,15.777413,-90.538714,EODP,COMUNIDAD RUBEL YUM
270,16-01-0242-43,ALTA VERAPAZ,COBAN,15.777413,-90.538714,EORM,COMUNIDAD RUBEL YUM
271,16-07-0202-43,ALTA VERAPAZ,PANZOS,15.777413,-90.538714,EORM,PARCELAMIENTO COLONIA VILLA NUEVA
272,16-07-0203-41,ALTA VERAPAZ,PANZOS,15.777413,-90.538714,COPB,PARCELAMIENTO COLONIA VILLA NUEVA
273,16-03-0229-43,ALTA VERAPAZ,SAN CRISTOBAL VERAPAZ,15.342632,-90.532063,EORM,ALDEA AGUA BLANCA
274,16-13-0004-41,ALTA VERAPAZ,CHISEC,15.889613,-90.531259,COPB,COMUNIDAD NUEVA BABILONIA
275,16-13-0073-43,ALTA VERAPAZ,CHISEC,15.889613,-90.531259,EORM,COMUNIDAD NUEVA BABILONIA
276,16-03-0044-41,ALTA VERAPAZ,SAN CRISTOBAL VERAPAZ,15.343708,-90.530175,COPB ANEXO A EORM,CASERIO TUCANJA
277,16-01-9113-43,ALTA VERAPAZ,COBAN,15.699836,-90.530155,EORM,ALDEA CHINAMOCOCH SETA??O
278,16-01-0202-42,ALTA VERAPAZ,COBAN,15.768691,-90.528716,EODP ALDEA SANTA VALERIA,ALDEA SANTA VALERIA
279,16-01-0248-43,ALTA VERAPAZ,COBAN,15.768691,-90.528716,EORM CASERIO SANTA VALERIA,CASERIO SANTA VALERIA
280,16-03-0206-43,ALTA VERAPAZ,SAN CRISTOBAL VERAPAZ,15.391043,-90.528611,EORM,CASERIO PAMAC
281,16-01-0392-41,ALTA VERAPAZ,COBAN,15.539926,-90.528163,COPB ANEXO A EORM,ALDEA CONCEPCION AQUIL
282,16-01-0327-43,ALTA VERAPAZ,COBAN,15.542411,-90.527885,EORM ALDEA SAN JOSE SACALA,ALDEA SAN JOSE SACALA
283,16-01-0490-41,ALTA VERAPAZ,COBAN,15.542411,-90.527885,COPB ANEXO A EORM,ALDEA CAQUIJA
284,16-01-0293-43,ALTA VERAPAZ,COBAN,15.488933,-90.526323,EORM ALDEA CRUZ RAX MAX,ALDEA CRUZ RAX MAX
285,16-01-0375-43,ALTA VERAPAZ,COBAN,15.631256,-90.52546,EORM CASERIO SAN FRANCISCO SETZOL,CASERIO SAN FRANCISCO SETZOL
286,16-01-0267-43,ALTA VERAPAZ,COBAN,15.977842,-90.524978,EORM,COMUNIDAD NUEVO AMANECER EL PLAN
287,16-01-0353-43,ALTA VERAPAZ,COBAN,15.756256,-90.521918,EORM,ALDEA LA CEIBA COPALA
288,16-01-0354-43,ALTA VERAPAZ,COBAN,15.756256,-90.521918,EORM,CASERIO KANTOLOK
289,16-13-0210-43,ALTA VERAPAZ,CHISEC,15.844519,-90.521345,EORM,CASERIO SIGUANHA
290,16-13-0133-43,ALTA VERAPAZ,CHISEC,15.833993,-90.520832,EORM COMUNIDAD LA NUEVA ESPERANZA,COMUNIDAD LA NUEVA ESPERANZA
291,16-13-0012-41,ALTA VERAPAZ,CHISEC,15.917534,-90.51938,COPB,COMUNIDAD POZO SECO
292,16-13-0121-43,ALTA VERAPAZ,CHISEC,15.917534,-90.51938,EORM COMUNIDAD POZO SECO,COMUNIDAD POZO SECO
293,16-01-0331-43,ALTA VERAPAZ,COBAN,15.698931,-90.517987,EORM,COMUNIDAD SETA??A I
294,16-01-0195-42,ALTA VERAPAZ,COBAN,15.534731,-90.517298,EODP COMUNIDAD SAN JUAN CRUZ DE MADERA CHIMUCAY,COMUNIDAD SAN JUAN DE MADERA CHIMUCAY
295,16-01-0379-43,ALTA VERAPAZ,COBAN,15.534731,-90.517298,EORM CASERIO SAN JUAN CRUZ DE MADERA CHIMUCAY,CASERIO SAN JUAN CRUZ DE MADERA
296,16-01-1613-43,ALTA VERAPAZ,COBAN,15.714275,-90.516915,EORM,ALDEA SAQUIPEC
297,16-03-0073-43,ALTA VERAPAZ,SAN CRISTOBAL VERAPAZ,15.41137,-90.516228,EORM,CASERIO PANISTE
298,16-03-0172-41,ALTA VERAPAZ,SAN CRISTOBAL VERAPAZ,15.41137,-90.516228,COPB ANEXO A EORM,ALDEA LAS PACAYAS
299,16-03-0218-43,ALTA VERAPAZ,SAN CRISTOBAL VERAPAZ,15.41137,-90.516228,EORM,ALDEA LAS PACAYAS
300,16-13-0185-43,ALTA VERAPAZ,CHISEC,15.926026,-90.515035,EORM,CASERIO EL PORVENIR
301,16-13-0232-41,ALTA VERAPAZ,CHISEC,15.926026,-90.515035,COPB ANEXO A EORM,COMUNIDAD VERAPAZ
302,16-01-0287-43,ALTA VERAPAZ,COBAN,15.652137,-90.512325,EORM COMUNIDAD SAPOX,COMUNIDAD SAPOX
303,16-01-0516-41,ALTA VERAPAZ,COBAN,15.652137,-90.512325,COPB ANEXO A EORM,ALDEA SANTO DOMINGO CUNXPUR
304,16-13-0155-43,ALTA VERAPAZ,CHISEC,15.931168,-90.511781,EOUM,COLONIA LOS ANGELES
305,16-13-0248-43,ALTA VERAPAZ,CHISEC,15.931168,-90.511781,EORM,CASERIO CHINASAJAL CHIBUT
306,16-13-0980-43,ALTA VERAPAZ,CHISEC,15.931168,-90.511781,EORM,ALDEA CHIQUIBUL
307,16-01-0198-42,ALTA VERAPAZ,COBAN,15.659044,-90.510479,EODP COMUNIDAD RIO MOJARRAS CAMPAMAC,COMUNIDAD RIO MOJARRAS CAMPANAC
308,16-01-0228-43,ALTA VERAPAZ,COBAN,15.659044,-90.510479,EORM CASERIO RIO MOJARRAS CAMPAMAC,CASERIO RIO MOJARRAS CAMPAMAC
309,16-01-0291-43,ALTA VERAPAZ,COBAN,15.981604,-90.509701,EORM,COMUNIDAD SAN LUIS PALO GRANDE
310,16-01-0628-41,ALTA VERAPAZ,COBAN,15.981604,-90.509701,COPB ANEXO A EORM,BALDIO XALACHE
311,16-01-0236-43,ALTA VERAPAZ,COBAN,15.71111,-90.509511,EORM CASERIO SATA??O II,CASERIO SATA??O II
312,16-03-0052-43,ALTA VERAPAZ,SAN CRISTOBAL VERAPAZ,15.36598,-90.50827,EORM,CASERIO SAN ANTONIO PITA FLOJA
313,16-03-0174-41,ALTA VERAPAZ,SAN CRISTOBAL VERAPAZ,15.36603,-90.507243,COPB ANEXO A EORM,ALDEA CHIYUC
314,16-03-0220-43,ALTA VERAPAZ,SAN CRISTOBAL VERAPAZ,15.36603,-90.507243,EORM,ALDEA CHIYUC
315,16-03-1523-42,ALTA VERAPAZ,SAN CRISTOBAL VERAPAZ,15.36603,-90.507243,EODP ANEXA A EORM,ALDEA CHIYUC
316,16-13-0056-43,ALTA VERAPAZ,CHISEC,15.846681,-90.50709,EORM COMUNIDAD CERRO ALTO,COMUNIDAD CERRO ALTO
317,16-01-0653-43,ALTA VERAPAZ,COBAN,15.552733,-90.506681,EORM ESCUELA OFICIAL RURAL MIXTA,FINCA SACTELA
318,16-03-0185-41,ALTA VERAPAZ,SAN CRISTOBAL VERAPAZ,15.384754,-90.505433,COPB ANEXO A EORM,ALDEA REXQUIX
319,16-03-0213-43,ALTA VERAPAZ,SAN CRISTOBAL VERAPAZ,15.384754,-90.505433,EORM,ALDEA REXQUIX
320,16-01-0230-43,ALTA VERAPAZ,COBAN,15.614346,-90.504793,EORM COMUNIDAD SAPOX I,COMUNIDAD SAPOX I
321,16-01-0090-43,ALTA VERAPAZ,COBAN,15.772032,-90.503331,EORM,ALDEA CHITZUJAY
322,16-01-0091-43,ALTA VERAPAZ,COBAN,15.772032,-90.503331,EORM,ALDEA SAN PEDRO CANAHU
323,16-01-0576-41,ALTA VERAPAZ,COBAN,15.772032,-90.503331,COPB ANEXO A EORM,ALDEA SAN PEDRO CANAHU
324,16-01-1123-43,ALTA VERAPAZ,COBAN,15.755061,-90.498837,EORM,ALDEA CHIQUICHE CANAHU
325,16-01-1168-43,ALTA VERAPAZ,COBAN,15.755061,-90.498837,EORM,ALDEA CHIRRIXPEC SACRANIX II
326,16-01-1169-41,ALTA VERAPAZ,COBAN,15.755061,-90.498837,COPB ANEXO A EORM,ALDEA CHIQUICHE CANAHU
327,16-03-0183-41,ALTA VERAPAZ,SAN CRISTOBAL VERAPAZ,15.420756,-90.498502,COPB ANEXO A EORM,ALDEA NAJTILABAJ
328,16-03-0212-43,ALTA VERAPAZ,SAN CRISTOBAL VERAPAZ,15.420756,-90.498502,EORM,ALDEA NAJTILABAJ
329,16-13-1595-41,ALTA VERAPAZ,CHISEC,15.947855,-90.496431,COPB ANEXA A EORM,ALDEA SETZI
330,16-13-1596-41,ALTA VERAPAZ,CHISEC,15.947855,-90.496431,COPB ANEXO A EORM,ALDEA EL QUETZAL
331,16-13-2391-43,ALTA VERAPAZ,CHISEC,15.947855,-90.496431,EORM,ALDEA EL QUETZAL
332,16-03-0236-43,ALTA VERAPAZ,SAN CRISTOBAL VERAPAZ,15.356095,-90.495824,EORM,CASERIO CHIYEY
333,16-01-6209-43,ALTA VERAPAZ,COBAN,15.590103,-90.493911,EORM,ALDEA NIMLASAYUB
334,16-01-8461-41,ALTA VERAPAZ,COBAN,15.590103,-90.493911,COPB ANEXO A EORM,ALDEA NIMLASAYUB
335,16-13-0092-43,ALTA VERAPAZ,CHISEC,15.808659,-90.492077,EORM COMUNIDAD LAS CRUCES DEL NORTE,COMUNIDAD LAS CRUCES DEL NORTE
336,16-01-0389-43,ALTA VERAPAZ,COBAN,15.653774,-90.490549,EORM,ALDEA CHINAJACOC
337,16-03-0235-43,ALTA VERAPAZ,SAN CRISTOBAL VERAPAZ,15.369721,-90.490393,EORM,CANTON LAS ARRUGAS
338,16-03-8165-42,ALTA VERAPAZ,SAN CRISTOBAL VERAPAZ,15.369721,-90.490393,EODP ANEXA A EORM,ALDEA LAS ARRUGAS
339,16-03-2305-43,ALTA VERAPAZ,SAN CRISTOBAL VERAPAZ,15.362186,-90.489575,EORM,COMUNIDAD AGUA BENDITA
340,16-03-6993-42,ALTA VERAPAZ,SAN CRISTOBAL VERAPAZ,15.362186,-90.489575,EODP ANEXA A EORM,ALDEA AGUA BENDITA
341,16-03-8264-42,ALTA VERAPAZ,SAN CRISTOBAL VERAPAZ,15.36802,-90.489575,CEIN -PAIN-,CANTON LAS ARRUGAS
342,16-01-0472-42,ALTA VERAPAZ,COBAN,15.640801,-90.487673,EODP,"4TA. AVENIDA 11-47 ZONA 1, BARRIO SANTO TOMAS"
343,16-01-0473-43,ALTA VERAPAZ,COBAN,15.640801,-90.487673,EORM,RUBEL TZUL
344,16-13-2259-41,ALTA VERAPAZ,CHISEC,16.001168,-90.487158,COPB ANEXA A EORM,ALDEA SECHINAPEMECH
345,16-13-2331-43,ALTA VERAPAZ,CHISEC,16.001168,-90.487158,EORM,CASERIO LA CHAPINA
346,16-01-0320-43,ALTA VERAPAZ,COBAN,15.746734,-90.486329,EORM,CASERIO SANTO DOMINGO CUNIXPUR
347,16-01-0509-41,ALTA VERAPAZ,COBAN,15.746734,-90.486329,COPB ANEXO A EORM,ALDEA MONTE BLANCO
348,16-01-1114-41,ALTA VERAPAZ,COBAN,15.658888,-90.485746,COPB ANEXO A EORM,ALDEA YALCHACTI
349,16-01-1607-43,ALTA VERAPAZ,COBAN,15.658888,-90.485746,EORM,CASERIO YALCHACTI I
350,16-01-0373-43,ALTA VERAPAZ,COBAN,15.539699,-90.485325,EORM COMUNIDAD CHAMPOC III,COMUNIDAD CHAMPOC III
351,16-03-0078-42,ALTA VERAPAZ,SAN CRISTOBAL VERAPAZ,15.359195,-90.48237,EODP ANEXA A EOUV,"O AVENIDA 7-03 ZONA 3, BARRIO SAN CRISTOBAL"
352,16-03-0079-43,ALTA VERAPAZ,SAN CRISTOBAL VERAPAZ,15.359195,-90.48237,EORM,COLONIA MARTIRES POQOMCHIES PANTUP
353,16-13-0099-43,ALTA VERAPAZ,CHISEC,15.842505,-90.481899,EORM COMUNIDAD RINCONCITO DEL NORTE,COMUNIDAD RINCONCITO DEL NORTE
354,16-03-0046-41,ALTA VERAPAZ,SAN CRISTOBAL VERAPAZ,15.359496,-90.481462,COPB ANEXO A EORM,CASERIO PANHUX
355,16-03-0049-43,ALTA VERAPAZ,SAN CRISTOBAL VERAPAZ,15.359496,-90.481462,EORM,CASERIO EL REGALO
356,16-03-0085-42,ALTA VERAPAZ,SAN CRISTOBAL VERAPAZ,15.359496,-90.481462,EODP,"5TA, AVENIDA 0-74 ZONA 1 BARRIO SAN FELIPE"
357,16-03-0040-41,ALTA VERAPAZ,SAN CRISTOBAL VERAPAZ,15.362730000000001,-90.48132,COPB ANEXA A EORM,SAQUIXIM
358,16-03-1126-43,ALTA VERAPAZ,SAN CRISTOBAL VERAPAZ,15.36261,-90.481166,EOUN MARTHA RUIZ DE JUAREZ,1A. AV. 5-57 ZONA 3 BARRIO SAN CRISTOBAL
359,16-03-6769-43,ALTA VERAPAZ,SAN CRISTOBAL VERAPAZ,15.36261,-90.481166,EOUN MARTHA RUIZ DE JUAREZ,1A. 5-57 ZONA 3 BARRIO SAN CRISTOBAL
360,16-03-0238-43,ALTA VERAPAZ,SAN CRISTOBAL VERAPAZ,15.362098,-90.481082,EOUV RENE ALBERTO CARDOZA BARAHONA,0AV. 7-03 ZONA 3 BARRIO SAN CRISTOBAL
361,16-03-1538-43,ALTA VERAPAZ,SAN CRISTOBAL VERAPAZ,15.362098,-90.481082,EORM,ALDEA AGUA BLANCA SANTA MARIA
362,16-03-7020-43,ALTA VERAPAZ,SAN CRISTOBAL VERAPAZ,15.362098,-90.481082,EOUV,BARRIO SAN CRISTOBAL
363,16-03-0020-43,ALTA VERAPAZ,SAN CRISTOBAL VERAPAZ,15.300119,-90.480827,EORM,ALDEA SAN JOSE CHITUZUL
364,16-03-0074-43,ALTA VERAPAZ,SAN CRISTOBAL VERAPAZ,15.364082,-90.480736,EORM,ALDEA LAS PACAYAS
365,16-01-0337-43,ALTA VERAPAZ,COBAN,15.645682,-90.480268,EORM ALDEA YALCHACTI II,ALDEA YALCHACTI II
366,16-13-0035-41,ALTA VERAPAZ,CHISEC,15.981757,-90.480257,COPB,COMUNIDAD LIMON NORTE
367,16-13-0128-43,ALTA VERAPAZ,CHISEC,15.981757,-90.480257,EORM,COMUNIDAD LIMON NORTE
368,16-01-0595-43,ALTA VERAPAZ,COBAN,15.709175,-90.480055,EORM,COMUNIDAD RIO CHICOY CUXIXILA
369,16-03-0084-42,ALTA VERAPAZ,SAN CRISTOBAL VERAPAZ,15.368223,-90.479976,EODP,"1A. CALLE DEL LLANO, ZONA 5 BARRIO ESQUIPULAS"
370,16-13-6441-41,ALTA VERAPAZ,CHISEC,15.927094,-90.479838,COPB ANEXA A EORM,COMUNIDAD AURORA 8 DE OCTUBRE
371,16-13-6442-43,ALTA VERAPAZ,CHISEC,15.927094,-90.479838,EORM,COMUNIDAD AURORA 8 DE OCTUBRE
372,16-03-8547-42,ALTA VERAPAZ,SAN CRISTOBAL VERAPAZ,15.363273,-90.479812,CEES ANEXO A CODP,BARRIO SAN FELIPE
373,16-03-8548-43,ALTA VERAPAZ,SAN CRISTOBAL VERAPAZ,15.363273,-90.479812,CEES ANEXO A EOUM,BARRIO SAN FELIPE
374,16-03-1537-41,ALTA VERAPAZ,SAN CRISTOBAL VERAPAZ,15.463832,-90.479452,COPB ANEXO A EORM,ALDEA CHITUJ
375,16-03-1622-43,ALTA VERAPAZ,SAN CRISTOBAL VERAPAZ,15.463832,-90.479452,EORM,ALDEA CHITUJ
376,16-03-8862-42,ALTA VERAPAZ,SAN CRISTOBAL VERAPAZ,15.370758,-90.479239,EODP,3A. AVENIDA 0-23 ZONA 2 CALLE DEL CALVARIO BARRIO SAN SEBASTIAN
377,16-03-9068-43,ALTA VERAPAZ,SAN CRISTOBAL VERAPAZ,15.370758,-90.479239,EORM,CANTON PAMPUR
378,16-03-9881-42,ALTA VERAPAZ,SAN CRISTOBAL VERAPAZ,15.370758,-90.479239,EODP ANEXA A EORM,CANTON PAMPUR
379,16-03-0054-43,ALTA VERAPAZ,SAN CRISTOBAL VERAPAZ,15.363244,-90.479104,EORM,CASERIO NUEVO PANCOX
380,16-03-1407-43,ALTA VERAPAZ,SAN CRISTOBAL VERAPAZ,15.363244,-90.479104,EORM,CASERIO CHEPENAL ALDEA QUEJA
381,16-03-1498-43,ALTA VERAPAZ,SAN CRISTOBAL VERAPAZ,15.363244,-90.479104,EORM,CASERIO PANQUIX
382,16-13-0033-42,ALTA VERAPAZ,CHISEC,15.885287,-90.478848,EODP COMUNIDAD CERRO AZUL,COMUNIDAD CERRO AZUL
383,16-13-0066-43,ALTA VERAPAZ,CHISEC,15.885287,-90.478848,EORM COMUNIDAD CERRO AZUL,COMUNIDAD CERRO AZUL
384,16-01-0300-43,ALTA VERAPAZ,COBAN,15.553507,-90.477871,EORM COMUNIDAD DE SEHUX SETZAC,COMUNIDAD SEHUX SETZAC
385,16-03-0202-42,ALTA VERAPAZ,SAN CRISTOBAL VERAPAZ,15.36511,-90.477771,EODP,BARRIO SAN FELIPE
386,16-13-0157-41,ALTA VERAPAZ,CHISEC,15.986026,-90.477098,COPB ANEXA A EORM,COMUNIDAD CHIQUIBUL
387,16-13-0159-41,ALTA VERAPAZ,CHISEC,15.986026,-90.477098,COPB ANEXO A EORM,ALDEA EL PARAISO
388,16-03-0068-41,ALTA VERAPAZ,SAN CRISTOBAL VERAPAZ,15.364187,-90.477068,COPB,CASERIO LAS VICTORIAS
389,16-03-0080-41,ALTA VERAPAZ,SAN CRISTOBAL VERAPAZ,15.352651,-90.476601,COPB ANEXO A EORM,COLONIA MARTIRES POQOMCHIES PANTUP
390,16-03-2789-43,ALTA VERAPAZ,SAN CRISTOBAL VERAPAZ,15.352651,-90.476601,EOUM,BARRIO ESQUIPULAS
391,16-03-8166-42,ALTA VERAPAZ,SAN CRISTOBAL VERAPAZ,15.352651,-90.476601,EODP ANEXA A EOUM,BARRIO ESQUIPULAS
392,16-03-0027-42,ALTA VERAPAZ,SAN CRISTOBAL VERAPAZ,15.365576,-90.475459,"EODP ANEXA A EOUN ""MARTHA RUIZ DE JUAREZ""",1A. AVENIDA 5-57 ZONA 3;
393,16-01-0182-42,ALTA VERAPAZ,COBAN,15.594443,-90.475302,EODP COMUNIDAD CHINASAYUB,COMUNIDAD CHINASAYUB
394,16-01-0239-43,ALTA VERAPAZ,COBAN,15.594443,-90.475302,EORM COMUNIDAD CHINASAYUB,COMUNIDAD CHINASAYUB
395,16-01-0307-43,ALTA VERAPAZ,COBAN,15.470481,-90.474594,EORM ALDEA TZIMAJIL,ALDEA TZIMAJIL
396,16-03-0181-41,ALTA VERAPAZ,SAN CRISTOBAL VERAPAZ,15.388754,-90.473998,COPB ANEXO A EORM,CASERIO PAMAC
397,16-03-0182-43,ALTA VERAPAZ,SAN CRISTOBAL VERAPAZ,15.388754,-90.473998,EORM,ALDEA SANTA INES CHICAR
398,16-03-8182-41,ALTA VERAPAZ,SAN CRISTOBAL VERAPAZ,15.388754,-90.473998,COPB ANEXO A EORM,ALDEA SANTA INES CHICAR
399,16-01-0244-43,ALTA VERAPAZ,COBAN,15.659501,-90.472286,EORM COMUNIDAD CAMPUR,COMUNIDAD CAMPUR
400,16-01-0497-41,ALTA VERAPAZ,COBAN,15.659501,-90.472286,COPB ANEXO A EORM,"CASERIO SACHINAMOX, ALDEA CUBILGUITZ"
401,16-01-0383-43,ALTA VERAPAZ,COBAN,15.709876,-90.470896,EORM,ALDEA SAN FRANCISCO DEL RIO
402,16-03-0209-43,ALTA VERAPAZ,SAN CRISTOBAL VERAPAZ,15.33328,-90.470708,EORM,ALDEA EL SALMAR
403,16-13-0982-43,ALTA VERAPAZ,CHISEC,15.825287,-90.47016,EORM,COOPERATIVA LOMAS DEL NORTE
404,16-13-0026-41,ALTA VERAPAZ,CHISEC,15.7882,-90.469557,COPB COMUNIDAD SEPOCIL,COMUNIDAD SEPOCIL
405,16-13-0027-41,ALTA VERAPAZ,CHISEC,15.7882,-90.469557,COPB COMUNIDAD CHINAHA ZAPOTILLO,COMUNIDAD CHINAHA ZAPOTILLO
406,16-13-0054-43,ALTA VERAPAZ,CHISEC,15.7882,-90.469557,EORM,COMUNIDAD CHINAHA ZAPOTILLO
407,16-03-0072-43,ALTA VERAPAZ,SAN CRISTOBAL VERAPAZ,15.377851,-90.46911,EORM,CASERIO PANAJMAY
408,16-03-0171-41,ALTA VERAPAZ,SAN CRISTOBAL VERAPAZ,15.377851,-90.46911,COPB ANEXO A EORM,ALDEA PANISTE
409,16-03-0217-43,ALTA VERAPAZ,SAN CRISTOBAL VERAPAZ,15.377851,-90.46911,EORM,ALDEA PANISTE
410,16-01-0253-43,ALTA VERAPAZ,COBAN,15.760467,-90.468651,EORM ALDEA LAS PIMIENTAS,ALDEA LAS PIMIENTAS
411,16-01-9043-43,ALTA VERAPAZ,COBAN,15.666251,-90.468613,EORM,ALDEA CHAJLAB RIO MOJARRAS
412,16-01-9904-41,ALTA VERAPAZ,COBAN,15.666251,-90.468613,COPB ANEXO A EORM,ALDEA CHABLAJ RIO MOJARRAS
413,16-03-0184-41,ALTA VERAPAZ,SAN CRISTOBAL VERAPAZ,15.420331,-90.468604,COPB ANEXO A EORM,ALDEA SAN LUCAS CHIACAL
414,16-03-0211-43,ALTA VERAPAZ,SAN CRISTOBAL VERAPAZ,15.420331,-90.468604,EORM,CASERIO SAN LUCAS CHIACAL
415,16-13-0981-43,ALTA VERAPAZ,CHISEC,15.968925,-90.46826,EORM,ALDEA LIMON SUR
416,16-13-1558-41,ALTA VERAPAZ,CHISEC,15.968925,-90.46826,COPB ANEXO A EORM,COMUNIDAD YALCHACTI
417,16-13-1580-41,ALTA VERAPAZ,CHISEC,15.968925,-90.46826,COPB ANEX0 A EORM,ALDEA LIMON SUR
418,16-01-6642-43,ALTA VERAPAZ,COBAN,15.658441,-90.467311,EORM,COMUNIDAD SALVADOR CHITZOL
419,16-01-0177-41,ALTA VERAPAZ,COBAN,15.716825,-90.466814,"COPB CASERIO MONTE OLIVO, ALDEA CUBILGUITZ","CASERIO MONTE OLIVO, ALDEA CUBILGUITZ"
420,16-01-0321-43,ALTA VERAPAZ,COBAN,15.716825,-90.466814,"EORM CASERIO MONTE OLIVO, ALDEA CUBILGUITZ","CASERIO MONTE OLIVO, ALDEA CUBILGUITZ"
421,16-13-0025-41,ALTA VERAPAZ,CHISEC,15.983626,-90.466301,COPB COMUNIDAD SAN MIGUEL,COMUNIDAD SAN MIGUEL
422,16-13-0115-43,ALTA VERAPAZ,CHISEC,15.983626,-90.466301,EORM COMUNIDAD SAN MIGUEL,COMUNIDAD SAN MIGUEL
423,16-03-0041-42,ALTA VERAPAZ,SAN CRISTOBAL VERAPAZ,15.376195,-90.466222,EODP ANEXA A EOU DE NI??AS MARTHA RUIZ DE JUAREZ,1A. AVENIDA 5-57 ZONA 3 BARRIO SAN CRISTOBAL
424,16-03-0043-43,ALTA VERAPAZ,SAN CRISTOBAL VERAPAZ,15.376195,-90.466222,EORM,CASERIO TUCANJA
425,16-03-6580-42,ALTA VERAPAZ,SAN CRISTOBAL VERAPAZ,15.355673,-90.464968,EODP,CASERIO VENECIA
426,16-03-6648-43,ALTA VERAPAZ,SAN CRISTOBAL VERAPAZ,15.355673,-90.464968,EORM,CASERIO VENECIA
427,16-01-0306-43,ALTA VERAPAZ,COBAN,15.489897,-90.463106,EORM COOPERATIVA SANTA MARIA CHIPUR SANIMTACA,COOPERATIVA SANTA MARIA CHIPUR SANIMTACA
428,16-01-0691-43,ALTA VERAPAZ,COBAN,15.717131,-90.462321,EORM,PARAJE BETANIA
429,16-03-0180-41,ALTA VERAPAZ,SAN CRISTOBAL VERAPAZ,15.3627,-90.46142,COPB ANEXO A EORM,ALDEA NISNIC
430,16-03-0230-43,ALTA VERAPAZ,SAN CRISTOBAL VERAPAZ,15.3627,-90.46142,EORM,ALDEA NISNIC
431,16-03-0066-41,ALTA VERAPAZ,SAN CRISTOBAL VERAPAZ,15.39272,-90.45997,COPB,CASERIO SANTA ROSA
432,16-03-0067-43,ALTA VERAPAZ,SAN CRISTOBAL VERAPAZ,15.39272,-90.45997,EORM,CASERIO LAS VICTORIAS
433,16-01-0048-41,ALTA VERAPAZ,COBAN,15.741676,-90.456088,COPB ANEXO A EORM,ALDEA CHAJCHE
434,16-01-6871-43,ALTA VERAPAZ,COBAN,15.741676,-90.456088,EORM,ALDEA CHAJCHE
435,16-03-0013-43,ALTA VERAPAZ,SAN CRISTOBAL VERAPAZ,15.351913,-90.455863,EORM CASERIO PANCOX,CASERIO PANCOX
436,16-01-0081-43,ALTA VERAPAZ,COBAN,15.615214,-90.455287,EORM,ALDEA CONCEPCION AQUIL
437,16-01-0166-41,ALTA VERAPAZ,COBAN,15.714102,-90.454836,COPB CASERIO ISRAEL,CASERIO ISRAEL
438,16-01-0269-43,ALTA VERAPAZ,COBAN,15.714102,-90.454836,EORM CASERIO ISRAEL,CASERIO ISRAEL
439,16-01-0113-43,ALTA VERAPAZ,COBAN,15.422351,-90.454793,EORM,ALDEA SARRAX-OCH
440,16-01-9042-42,ALTA VERAPAZ,COBAN,15.422351,-90.454793,EODP ANEXA A EORM,ALDEA SARRAX-OCH
441,16-03-0007-42,ALTA VERAPAZ,SAN CRISTOBAL VERAPAZ,15.310334,-90.454318,EODP COMUNIDAD VISTA HERMOSA,COMUNIDAD VISTA HERMOSA
442,16-03-0008-42,ALTA VERAPAZ,SAN CRISTOBAL VERAPAZ,15.310334,-90.454318,"EODP CASERIO PANBONCITO, ALDEA EL RANCHO",CASERIO PANBONCITO ALDEA EL RANCHO
443,16-03-0009-43,ALTA VERAPAZ,SAN CRISTOBAL VERAPAZ,15.310334,-90.454318,EORM COMUNIDAD VISTA HERMOSA,CASERIO VISTA HERMOSA
444,16-01-8255-43,ALTA VERAPAZ,COBAN,15.681863,-90.45326,EORM,ALDEA NUEVO PORVENIR
445,16-01-8258-41,ALTA VERAPAZ,COBAN,15.681863,-90.45326,COPB ANEXO A EORM,ALDEA NUEVO PORVENIR
446,16-02-9038-43,ALTA VERAPAZ,SANTA CRUZ VERAPAZ,15.376787,-90.453154,EORM,ALDEA ACAMAL SECTOR II
447,16-02-9069-41,ALTA VERAPAZ,SANTA CRUZ VERAPAZ,15.376787,-90.453154,COPB ANEXO A EORM,ALDEA ACAMAL SECTOR II
448,16-13-0978-43,ALTA VERAPAZ,CHISEC,16.013176,-90.451396,EORM,ALDEA PLAYITAS
449,16-01-0168-42,ALTA VERAPAZ,COBAN,15.615834,-90.451104,EODP ALDEA NUEVO AQUIL,ALDEA NUEVO AQUIL
450,16-01-0232-43,ALTA VERAPAZ,COBAN,15.615834,-90.451104,EORM ALDEA NUEVO AQUIL,ALDEA NUEVO AQUIL
451,16-01-0170-42,ALTA VERAPAZ,COBAN,15.686138,-90.450363,EODP,COMUNIDAD LAS PROMESAS
452,16-01-0221-43,ALTA VERAPAZ,COBAN,15.686138,-90.450363,EORM,COMUNIDAD LAS PROMESAS
453,16-03-1536-41,ALTA VERAPAZ,SAN CRISTOBAL VERAPAZ,15.318283,-90.450315,COPB ANEXO A EORM,ALDEA CHISIRAM
454,16-03-1620-43,ALTA VERAPAZ,SAN CRISTOBAL VERAPAZ,15.318283,-90.450315,EORM,ALDEA CHISIRAM
455,16-03-0060-41,ALTA VERAPAZ,SAN CRISTOBAL VERAPAZ,15.336312,-90.449208,COPB ANEXO A EORM,ALDEA NAVIDAD
456,16-03-0208-43,ALTA VERAPAZ,SAN CRISTOBAL VERAPAZ,15.336312,-90.449208,EORM,ALDEA SANTA MARIA
457,16-13-0950-41,ALTA VERAPAZ,CHISEC,15.767454,-90.44892,COPB ANEXA A EORM,ALDEA YALMACHAC
458,16-13-0952-41,ALTA VERAPAZ,CHISEC,15.767454,-90.44892,COPB ANEXO A EORM,ALDEA LAS PALMAS
459,16-13-0976-43,ALTA VERAPAZ,CHISEC,15.767454,-90.44892,EORM,CASERIO LAS PALMAS
460,16-02-0144-41,ALTA VERAPAZ,SANTA CRUZ VERAPAZ,15.375586,-90.447656,COPB ANEXO A EORM,ALDEA ACAMAL SECTOR II
461,16-02-0164-43,ALTA VERAPAZ,SANTA CRUZ VERAPAZ,15.375586,-90.447656,EORM,ALDEA ACAMAL
462,16-13-0161-41,ALTA VERAPAZ,CHISEC,15.98068,-90.44764,COPB ANEXO A EOUM,COLONIA SAN FRANCISCO
463,16-13-0969-43,ALTA VERAPAZ,CHISEC,15.988662,-90.447617,EORM,ALDEA RUBELSANTO
464,16-01-0012-41,ALTA VERAPAZ,COBAN,15.471551,-90.445054,COPB ANEXO A EORM,FINCA COOPERATIVA AGRICOLA SAMAC
465,16-01-0106-43,ALTA VERAPAZ,COBAN,15.471551,-90.445054,EORM,ALDEA SAMAC
466,16-01-6601-43,ALTA VERAPAZ,COBAN,15.426453,-90.443921,EORM,CHIHONON DOS
467,16-02-2818-43,ALTA VERAPAZ,SANTA CRUZ VERAPAZ,15.370181,-90.443252,EORM,CASERIO EL ARCO
468,16-02-2819-42,ALTA VERAPAZ,SANTA CRUZ VERAPAZ,15.370181,-90.443252,EODP ANEXA A EORM,CANTON EL ARCO
469,16-13-0145-43,ALTA VERAPAZ,CHISEC,15.96425,-90.441877,EORM COMUNIDAD NACIMIENTO RUBELSANTO,COMUNIDAD NACIMIENTO RUBELSALTO
470,16-01-0273-43,ALTA VERAPAZ,COBAN,15.756659,-90.441183,EORM,COMUNIDAD CAQUIJA
471,16-01-0487-41,ALTA VERAPAZ,COBAN,15.756659,-90.441183,COPB ANEXO A EORM,CASERIO RIO PALMERAS
472,16-01-0222-43,ALTA VERAPAZ,COBAN,15.621558,-90.440789,EORM,COMUNIDAD CHAJMACAN
473,16-01-0525-41,ALTA VERAPAZ,COBAN,15.621558,-90.440789,COPB ANEXO A EORM,COMUNIDAD ROKJA SATZAC
474,16-02-9517-43,ALTA VERAPAZ,SANTA CRUZ VERAPAZ,15.362078,-90.440229,EORM,CASERIO CHILOCOM
475,16-13-0209-43,ALTA VERAPAZ,CHISEC,15.771497,-90.43933,EOUM,COLONIA PAZ Y DESARROLLO
476,16-01-0276-43,ALTA VERAPAZ,COBAN,15.585615,-90.438383,EORM ALDEA INUPAL,ALDEA INUPAL
477,16-02-2095-43,ALTA VERAPAZ,SANTA CRUZ VERAPAZ,15.326154,-90.438162,EORM,CASERIO EL ROSARIO ITALIA
478,16-02-8456-42,ALTA VERAPAZ,SANTA CRUZ VERAPAZ,15.326154,-90.438162,EODP ANEXA A EORM,CASERIO EL ROSARIO ITALIA
479,16-13-2062-41,ALTA VERAPAZ,CHISEC,15.775917,-90.438143,COPB ANEXO A EORM,ALDEA EL TAMARINDO
480,16-13-2138-43,ALTA VERAPAZ,CHISEC,15.775917,-90.438143,EORM,ALDEA EL TAMARINDO
481,16-02-1617-43,ALTA VERAPAZ,SANTA CRUZ VERAPAZ,15.264147,-90.437618,EORM,CASERIO EL ZAPOTE
482,16-13-0147-43,ALTA VERAPAZ,CHISEC,16.03226,-90.437499,EORM,COMUNIDAD LA ISLA DEL REMOLINO
483,16-01-0387-43,ALTA VERAPAZ,COBAN,15.48977,-90.436706,EORM,CASERIO LAS CAMELIAS
484,16-01-0288-43,ALTA VERAPAZ,COBAN,15.565939,-90.436651,EORM COMUNIDAD SAACTE,COMUNIDAD SAACTE
485,16-02-0014-43,ALTA VERAPAZ,SANTA CRUZ VERAPAZ,15.359561,-90.435207,EORM,CASERIO LAGUNETA SECTOR II
486,16-02-0167-43,ALTA VERAPAZ,SANTA CRUZ VERAPAZ,15.359561,-90.435207,EORM,CASERIO SAN RAFAEL CHILOCOM
487,16-02-8179-41,ALTA VERAPAZ,SANTA CRUZ VERAPAZ,15.359561,-90.435207,COPB ANEXA A EORM,CASERIO SAN RAFAEL
488,16-01-0377-43,ALTA VERAPAZ,COBAN,15.506501,-90.433483,EORM COMUNIDAD CHAMPOC I,COMUNIDAD CHAMPOC I
489,16-01-0193-42,ALTA VERAPAZ,COBAN,15.725106,-90.43339,EODP,COMUNIDAD SANTA MARTA CHIBENTZUL
490,16-01-0246-43,ALTA VERAPAZ,COBAN,15.725106,-90.43339,EORM,COMUNIDAD SANTA MARTA CHIBENTZUL
491,16-02-0168-43,ALTA VERAPAZ,SANTA CRUZ VERAPAZ,15.376098,-90.433016,EOUM PROFESOR CRISTINO MORALES PICON,BARRIO SANTA ELENA
492,16-02-0016-41,ALTA VERAPAZ,SANTA CRUZ VERAPAZ,15.374121,-90.432929,COPB ANEXO A EORM,CASERIO LAGUNETA SECTOR II
493,16-02-1258-41,ALTA VERAPAZ,SANTA CRUZ VERAPAZ,15.374121,-90.432929,COPB ANEXA A EORM,CASERIO CHAJK XOJ
494,16-01-0634-41,ALTA VERAPAZ,COBAN,15.5631,-90.43273,COPB ANEXO A EORM,ALDEA UNION BUENA VISTA
495,16-02-0015-42,ALTA VERAPAZ,SANTA CRUZ VERAPAZ,15.36479,-90.43125,EODP ANEXA A EORM,CASERIO CHILOCOM
496,16-13-0071-43,ALTA VERAPAZ,CHISEC,16.041997,-90.430743,EORM COMUNIDAD LAS MERCEDES I,COMUNIDAD LAS MERCEDES I
497,16-02-0022-42,ALTA VERAPAZ,SANTA CRUZ VERAPAZ,15.375808,-90.430027,EODP,ALDEA LA ISLA
498,16-02-1618-43,ALTA VERAPAZ,SANTA CRUZ VERAPAZ,15.37146,-90.429132,EORM,CANTON LOS ANGELES
499,16-02-9015-41,ALTA VERAPAZ,SANTA CRUZ VERAPAZ,15.37146,-90.429132,COPB ANEXO A EORM,CANTON LOS ANGELES
500,16-02-8538-41,ALTA VERAPAZ,SANTA CRUZ VERAPAZ,15.372,-90.42893,COPB ANEXO A EORM,CASERIO CARCHELA
501,16-01-0007-41,ALTA VERAPAZ,COBAN,15.665687,-90.428717,COPB ANEXO A EORM,ALDEA BALBATZUL
502,16-01-0097-43,ALTA VERAPAZ,COBAN,15.665687,-90.428717,EORM,ALDEA BALBATZUL
503,16-13-2372-43,ALTA VERAPAZ,CHISEC,15.744605,-90.428575,EORM,ALDEA SIBICTE
504,16-01-0243-43,ALTA VERAPAZ,COBAN,15.43562,-90.428089,EORM COMUNIDAD CHIONON,ALDEA CHIONON
505,16-02-0155-42,ALTA VERAPAZ,SANTA CRUZ VERAPAZ,15.376627,-90.427919,EODP,BARRIO EL CALVARIO
506,16-02-6082-43,ALTA VERAPAZ,SANTA CRUZ VERAPAZ,15.299621,-90.427894,EORM,ALDEA CHIQUIGUITAL
507,16-01-0539-41,ALTA VERAPAZ,COBAN,15.662613,-90.427647,COPB ANEXO A EORM,COMUNIDAD DOLORES
508,16-01-0548-41,ALTA VERAPAZ,COBAN,15.662613,-90.427647,COPB ANEXO A EORM,ALDEA BELLA VISTA SACTELA
509,16-02-0005-43,ALTA VERAPAZ,SANTA CRUZ VERAPAZ,15.356995,-90.427222,EORM CASERIO SAN RAFAEL SECTOR II,CASERIO SAN RAFAEL SECTOR II
510,16-13-0069-43,ALTA VERAPAZ,CHISEC,15.913944,-90.427168,EORM COMUNIDAD LA LIBERTAD,COMUNIDAD LA LIBERTAD
511,16-01-0295-43,ALTA VERAPAZ,COBAN,15.64809,-90.427063,EORM COMUNIDAD NUEVA LAS PACAYAS,COMUNIDAD NUEVA LAS PACAYAS
512,16-01-0518-41,ALTA VERAPAZ,COBAN,15.64809,-90.427063,COPB ANEXO A EORM,ALDEA PAQUISIL
513,16-01-0214-42,ALTA VERAPAZ,COBAN,15.598233,-90.426716,EODP,ALDEA SAN LUIS PLAYA GRANDE
514,16-01-0215-42,ALTA VERAPAZ,COBAN,15.598233,-90.426716,EODP ANEXA A EORM,ALDEA SAYAXUT I
515,16-01-0275-43,ALTA VERAPAZ,COBAN,15.598233,-90.426716,EORM ALDEA SAYAXUT I,ALDEA SAYAXUT I
516,16-02-0147-41,ALTA VERAPAZ,SANTA CRUZ VERAPAZ,15.321061,-90.426506,COPB ANEXO A EORM,ALDEA NAJQUITOB
517,16-02-0160-43,ALTA VERAPAZ,SANTA CRUZ VERAPAZ,15.321061,-90.426506,EORM,ALDEA NAJQUITOB
518,16-13-0038-41,ALTA VERAPAZ,CHISEC,15.878875,-90.42614,COPB COMUNIDAD AGUA SUBTERRANEA,COMUNIDAD AGUA SUBTERRANEA
519,16-13-0124-43,ALTA VERAPAZ,CHISEC,15.878875,-90.42614,EORM,COMUNIDAD AGUA SUBTERRANEA
520,16-13-0013-41,ALTA VERAPAZ,CHISEC,15.931852,-90.426137,COPB,COMUNIDAD SAN PEDRO LIMON
521,16-13-0082-43,ALTA VERAPAZ,CHISEC,15.931852,-90.426137,EORM COMUNIDAD SAN PEDRO LIMON,COMUNIDAD SAN PEDRO LIMON
522,16-01-0051-41,ALTA VERAPAZ,COBAN,15.454322,-90.425307,COPB ANEXO A EORM,ALDEA CHICOJ RAXQUIX
523,16-01-0077-43,ALTA VERAPAZ,COBAN,15.454322,-90.425307,EORM,ALDEA CHICOJ RAXQUIX
524,16-02-0001-42,ALTA VERAPAZ,SANTA CRUZ VERAPAZ,15.35933,-90.424419,"EODP ALDEA CHICOYOJ, SECTOR I",ALDEA CHICOYOJ SECTOR I
525,16-02-0003-43,ALTA VERAPAZ,SANTA CRUZ VERAPAZ,15.35933,-90.424419,"EORM ALDEA CHICOYOJ, SECTOR I","ALDEA CHICOYOJ, SECTOR I"
526,16-13-0974-43,ALTA VERAPAZ,CHISEC,15.757937,-90.423967,EORM,ALDEA SAMOCOCH
527,16-13-0126-43,ALTA VERAPAZ,CHISEC,16.0238,-90.422776,EORM COMUNIDAD QUIMALA,COMUNIDAD QUIMALA
528,16-13-0041-42,ALTA VERAPAZ,CHISEC,15.77158,-90.422676,EODP COMUNIDAD CHINA TICARIB,COMUNIDAD CHINA TICARIB
529,16-13-0119-43,ALTA VERAPAZ,CHISEC,15.77158,-90.422676,EORM,COMUNIDAD CHINATICARIB
530,16-01-0008-41,ALTA VERAPAZ,COBAN,15.717412,-90.421363,COPB ANEXO A EORM,ALDEA SECOCPUR
531,16-01-0098-43,ALTA VERAPAZ,COBAN,15.717412,-90.421363,EORM,ALDEA SECOCPUR
532,16-02-0145-41,ALTA VERAPAZ,SANTA CRUZ VERAPAZ,15.33499,-90.42111,COPB ANEXO A EOUM PROFESOR CRISTINO MORALES PICON,BARRIO SANTA ELENA
533,16-02-0146-41,ALTA VERAPAZ,SANTA CRUZ VERAPAZ,15.334881,-90.421017,COPB ANEXO A EORM CORDELL ANDERSEN MORGAN,CASERIO EL CRUCERO RIO FRIO
534,16-02-0161-43,ALTA VERAPAZ,SANTA CRUZ VERAPAZ,15.334881,-90.421017,EORM CORDELL ANDERSEN MORGAN,CASERIO EL CRUCERO RIO FRIO
535,16-02-0002-41,ALTA VERAPAZ,SANTA CRUZ VERAPAZ,15.356847,-90.420661,COPB ALDEA CHICOYOJ SECTOR II,ALDEA CHICOYOJ SECTOR II
536,16-02-0004-43,ALTA VERAPAZ,SANTA CRUZ VERAPAZ,15.356847,-90.420661,EORM ALDEA CHICOYOJ SECTOR II,ALDEA CHICOYOJ SECTOR II
537,16-02-0149-41,ALTA VERAPAZ,SANTA CRUZ VERAPAZ,15.363297,-90.420369,COPB ANEXO A EORM,CASERIO LA ISLA
538,16-02-0158-43,ALTA VERAPAZ,SANTA CRUZ VERAPAZ,15.363297,-90.420369,EORM,ALDEA LA ISLA
539,16-02-6649-42,ALTA VERAPAZ,SANTA CRUZ VERAPAZ,15.363297,-90.420369,CEIN -PAIN-,ALDEA LA ISLA
540,16-02-0021-42,ALTA VERAPAZ,SANTA CRUZ VERAPAZ,15.36326,-90.42031,EODP,ALDEA CHICOU
541,16-01-0046-41,ALTA VERAPAZ,COBAN,15.422441,-90.4188,COPB ANEXO A EORM,ALDEA CHICUXAB
542,16-01-0115-43,ALTA VERAPAZ,COBAN,15.422441,-90.4188,EORM 'JOSE FEDERICO PINEDA',ALDEA CHICUXAB
543,16-01-0016-41,ALTA VERAPAZ,COBAN,15.464541,-90.418605,COPB ANEXO A EORM,COOPERATIVA CHICOJ
544,16-01-0088-43,ALTA VERAPAZ,COBAN,15.464541,-90.418605,EORM,COOPERATIVA CHICOJ
545,16-02-2304-43,ALTA VERAPAZ,SANTA CRUZ VERAPAZ,15.384062,-90.417575,EORM,CASERIO SAQUIJA
546,16-02-8181-41,ALTA VERAPAZ,SANTA CRUZ VERAPAZ,15.384062,-90.417575,COPB ANEXO A EORM,ALDEA SAQUIJA
547,16-02-0151-41,ALTA VERAPAZ,SANTA CRUZ VERAPAZ,15.394518,-90.417419,COPB ANEXO A EORM RAFAEL AREVALO MARTINEZ,ALDEA CHITUL
548,16-02-0166-43,ALTA VERAPAZ,SANTA CRUZ VERAPAZ,15.394518,-90.417419,EORM RAFAEL AREVALO MARTINEZ,ALDEA CHITUL
549,16-01-0010-41,ALTA VERAPAZ,COBAN,15.607108,-90.417108,COPB ANEXO A EORM,ALDEA SONTE
550,16-01-0100-43,ALTA VERAPAZ,COBAN,15.607108,-90.417108,EORM,ALDEA SONTE
551,16-13-8267-43,ALTA VERAPAZ,CHISEC,16.064629,-90.416188,EORM,COMUNIDAD LAS MERCEDES II
552,16-02-9117-43,ALTA VERAPAZ,SANTA CRUZ VERAPAZ,15.329885,-90.415919,EORM,CASERIO MOXENJA
553,16-02-9114-41,ALTA VERAPAZ,SANTA CRUZ VERAPAZ,15.32986,-90.41584,COPB ANEXO A EORM,CASERIO MOXENJA
554,16-02-1202-43,ALTA VERAPAZ,SANTA CRUZ VERAPAZ,15.36884,-90.4155,EORM,CASERIO CHAJK XOJ
555,16-01-0013-41,ALTA VERAPAZ,COBAN,15.647707,-90.415294,COPB ANEXO A EORM,ALDEA CHITOCAN
556,16-01-0102-43,ALTA VERAPAZ,COBAN,15.647707,-90.415294,EORM,ALDEA CHITOCAN I
557,16-01-0298-43,ALTA VERAPAZ,COBAN,15.579605,-90.414945,EORM CASERIO CAMCAL CAMPOSANTO,CASERIO CAMCAL CAMPOSANTO
558,16-01-0590-43,ALTA VERAPAZ,COBAN,15.457661,-90.414424,EORM,ALDEA NUEVO CENTRO EL RETIRO
559,16-01-0635-41,ALTA VERAPAZ,COBAN,15.457661,-90.414424,COPB ANEXO A EORM,LAS BRISAS CHINPANTUN
560,16-01-1495-41,ALTA VERAPAZ,COBAN,15.70714,-90.414424,COPB ANEXO A EORM,ALDEA IK MAHA
561,16-01-0578-43,ALTA VERAPAZ,COBAN,15.660361,-90.413643,EORM,ALDEA XALCATA
562,16-13-0146-43,ALTA VERAPAZ,CHISEC,16.064777,-90.413467,EORM COMUNIDAD SAN FRANCISCO LAS MERCEDES,COMUNIDAD SAN FRANCISCO LAS MERCEDES
563,16-01-0322-43,ALTA VERAPAZ,COBAN,15.69532,-90.412317,"EORM CASERIO SACHINAMOX, ALDEA CUBILGUITZ","CASERIO SACHINAMOX, ALDEA CUBILGUITZ"
564,16-01-0496-41,ALTA VERAPAZ,COBAN,15.69532,-90.412317,COPB ANEXO A EORM,ALDEA CANIHA II
565,16-13-0113-43,ALTA VERAPAZ,CHISEC,15.948622,-90.412293,EORM,COMUNIDAD NUEVO SINAI RUBEL SANTO
566,16-02-0165-43,ALTA VERAPAZ,SANTA CRUZ VERAPAZ,15.315243,-90.41184,EORM,CASERIO SAN ANTONIO PANEC
567,16-02-1499-43,ALTA VERAPAZ,SANTA CRUZ VERAPAZ,15.315243,-90.41184,EORM,CASERIO PANAHA
568,16-02-1521-42,ALTA VERAPAZ,SANTA CRUZ VERAPAZ,15.315243,-90.41184,EODP,CASERIO SAN ANTONIO PANEC
569,16-02-6780-43,ALTA VERAPAZ,SANTA CRUZ VERAPAZ,15.255009,-90.411011,EORM,ALDEA CARCHELA
570,16-01-0593-43,ALTA VERAPAZ,COBAN,15.679521,-90.410066,EORM,CASERIO BELLA VISTA RIO NEGRO
571,16-01-0352-43,ALTA VERAPAZ,COBAN,15.673711,-90.409056,EORM,CASERIO LA CEIBA
572,16-02-0023-42,ALTA VERAPAZ,SANTA CRUZ VERAPAZ,15.328397,-90.407931,EODP,"AV LA PARROQUIA 1RA. CALLE ZONA 2, BARRIO SANTO TOMAS"
573,16-02-0143-41,ALTA VERAPAZ,SANTA CRUZ VERAPAZ,15.328397,-90.407931,COPB ANEXO A EORM,"CASERIO PE??A DEL GALLO, ALDEA PARROCHOCH"
574,16-02-0162-43,ALTA VERAPAZ,SANTA CRUZ VERAPAZ,15.328397,-90.407931,EORM,CASERIO PE??A DEL GALLO
575,16-13-0199-41,ALTA VERAPAZ,CHISEC,15.835765,-90.407826,COPB ANEXO A EORM,COMUNIDAD CASTA LINTERNA I
576,16-13-0097-43,ALTA VERAPAZ,CHISEC,15.974573,-90.407767,EORM COMUNIDAD VERAPAZ,COMUNIDAD VERAPAZ
577,16-13-0231-41,ALTA VERAPAZ,CHISEC,15.974573,-90.407767,COPB ANEXO A EORM,COMUNIDAD LAS ROCAS
578,16-13-0102-43,ALTA VERAPAZ,CHISEC,15.906096,-90.407704,EORM COMUNIDAD LAS PAPAYAS,COMUNIDAD LAS PAPAYAS
579,16-02-0154-41,ALTA VERAPAZ,SANTA CRUZ VERAPAZ,15.291955,-90.4077,COPB ANEXO A EORM,ALDEA PAMBACH
580,16-02-0163-43,ALTA VERAPAZ,SANTA CRUZ VERAPAZ,15.291955,-90.4077,EORM,ALDEA PAMBACH
581,16-13-0186-43,ALTA VERAPAZ,CHISEC,15.835803,-90.407595,EORM,ALDEA NUEVA TIERRA
582,16-01-0172-42,ALTA VERAPAZ,COBAN,15.471946,-90.407559,EODP COMUNIDAD PETET CHIXIC,COMUNIDAD PETET CHIXIC
583,16-01-0231-43,ALTA VERAPAZ,COBAN,15.471946,-90.407559,EORM COMUNIDAD PETET CHIXIC,ALDEA PETET CHIXIC
584,16-01-0240-43,ALTA VERAPAZ,COBAN,15.699942,-90.407549,EORM,COMUNIDAD DOLORES
585,16-01-0538-41,ALTA VERAPAZ,COBAN,15.699942,-90.407549,COPB ANEXO A EORM,ALDEA UCULA CANGUINIC
586,16-01-0659-42,ALTA VERAPAZ,COBAN,15.464014,-90.407057,EODP,8A. AVENIDA 6-60 ZONA 3
587,16-01-7884-42,ALTA VERAPAZ,COBAN,15.464014,-90.407057,CEIN -PAIN-,ALDEA LA NUEVA ESPERANZA
588,16-02-6735-43,ALTA VERAPAZ,SANTA CRUZ VERAPAZ,15.373389,-90.40636,EORM,CASERIO PANQUIYOU
589,16-02-8536-41,ALTA VERAPAZ,SANTA CRUZ VERAPAZ,15.373389,-90.40636,COPB ANEXO A EORM,CASERIO PANQUIYOU
590,16-01-0118-43,ALTA VERAPAZ,COBAN,15.566803,-90.406337,EORM,ALDEA CAMCAL
591,16-01-1535-41,ALTA VERAPAZ,COBAN,15.566803,-90.406337,COPB ANEXO A EORM,ALDEA CAMCAL
592,16-13-0957-41,ALTA VERAPAZ,CHISEC,15.753515,-90.406022,COPB ANEXA A EORM,ALDEA SESAJAL LAS PACAYAS
593,16-13-0984-43,ALTA VERAPAZ,CHISEC,15.753515,-90.406022,EORM,CASERIO SESAJAL LAS PACAYAS
594,16-01-0225-43,ALTA VERAPAZ,COBAN,15.669601,-90.406022,EORM,COMUNIDAD SACTATE
595,16-01-0500-41,ALTA VERAPAZ,COBAN,15.669601,-90.406022,COPB ANEXO A EORM,COMUNIDAD CAMPUR
596,16-13-0246-43,ALTA VERAPAZ,CHISEC,15.75351,-90.4059,EOUM,BARRIO BELLA VISTA
597,16-02-0148-41,ALTA VERAPAZ,SANTA CRUZ VERAPAZ,15.366864,-90.405832,COPB ANEXO A EORM,ALDEA CHIXAJAU
598,16-02-0157-43,ALTA VERAPAZ,SANTA CRUZ VERAPAZ,15.366864,-90.405832,EORM JUAN JOSE GUERRERO SIERRA,ALDEA CHIXAJAU
599,16-01-0082-43,ALTA VERAPAZ,COBAN,15.465222,-90.40578,EORM,ALDEA PETET
600,16-01-2759-43,ALTA VERAPAZ,COBAN,15.465222,-90.40578,EORM,ALDEA PETET
601,16-01-1517-42,ALTA VERAPAZ,COBAN,15.46908,-90.404848,EODP,CAMPO DE AVIACION
602,16-01-0657-41,ALTA VERAPAZ,COBAN,15.46901,-90.404805,COPB ANEXO A,FINCA SACTELA
603,16-01-0169-42,ALTA VERAPAZ,COBAN,15.647243,-90.40429,EODP,COMUNIDAD DE CHICOTAN
604,16-01-0272-43,ALTA VERAPAZ,COBAN,15.647243,-90.40429,EORM,COMUNIDAD CHITOCAN
605,16-01-0015-41,ALTA VERAPAZ,COBAN,15.415308,-90.403533,COPB ANEXO A EORM DR. TOMAS LEAL SANCHEZ,ALDEA TONTEM
606,16-01-0086-43,ALTA VERAPAZ,COBAN,15.415308,-90.403533,EORM 'DR. TOMAS LEAL SANCHEZ',ALDEA TONTEM
607,16-01-9041-42,ALTA VERAPAZ,COBAN,15.415308,-90.403533,EODP ANEXO A EORM DR. TOMAS LEAL SANCHEZ,ALDEA TONTEN
608,16-01-0607-43,ALTA VERAPAZ,COBAN,15.499129,-90.403102,EORM,CASERIO LA CEIBA
609,16-01-1167-43,ALTA VERAPAZ,COBAN,15.499129,-90.403102,EORM,ALDEA CHOVAL O.W.
610,16-02-6736-43,ALTA VERAPAZ,SANTA CRUZ VERAPAZ,15.397722,-90.40153,EORM,CASERIO SANTA ELENA
611,16-02-6845-42,ALTA VERAPAZ,SANTA CRUZ VERAPAZ,15.397722,-90.40153,EODP ANEXO A EORM,CASERIO SANTA ELENA
612,16-04-0246-41,ALTA VERAPAZ,TACTIC,15.314311,-90.400886,COPB ANEXO A EORM,CASERIO PANSINIC
613,16-04-0260-43,ALTA VERAPAZ,TACTIC,15.314311,-90.400886,EORM,CASERIO PANSINIC
614,16-13-0985-43,ALTA VERAPAZ,CHISEC,15.76516,-90.400119,EORM,COMUNIDAD TRECE AGUAS
615,16-13-6640-43,ALTA VERAPAZ,CHISEC,16.000881,-90.40006,EORM,CASERIO TIERRA BLANCA
616,16-01-9115-42,ALTA VERAPAZ,COBAN,15.464034,-90.399192,CEIN -PAIN-,6A. AVENIDA 2-12 ZONA 2
617,16-01-9271-43,ALTA VERAPAZ,COBAN,15.464034,-90.399192,EOUM,9A. AVENIDA 6-50 ZONA 12 EL ESFUERZO
618,16-01-9559-42,ALTA VERAPAZ,COBAN,15.464034,-90.399192,EODP ANEXO A EOUM,9A AV 6-50 ZONA 12 EL ESFUERZO
619,16-01-0347-43,ALTA VERAPAZ,COBAN,15.529641,-90.398594,EORM ALDEA LOS CIPRESALES CHOVAL,ALDEA LOS CIPRESALES CHOVAL
620,16-01-0196-42,ALTA VERAPAZ,COBAN,15.647244,-90.397513,EODP ALDEA CHOCTUN BASILA,ALDEA CHOCTUN BASILA
621,16-01-0355-43,ALTA VERAPAZ,COBAN,15.647244,-90.397513,EORM ALDEA CHOCTUN BASILA,ALDEA CHOCTUN BASILA
622,16-01-0466-42,ALTA VERAPAZ,COBAN,15.461461,-90.396702,"EODP NO. 2 ""GUSTAVO ADOLFO LEAL KLUG""",BARRIO MAGDALENA ZONA 2;
623,16-01-0173-42,ALTA VERAPAZ,COBAN,15.552542,-90.394989,EODP,CASERIO PURAHUB
624,16-01-0284-43,ALTA VERAPAZ,COBAN,15.552542,-90.394989,EORM,CASERIO PURAHUB
625,16-01-7002-42,ALTA VERAPAZ,COBAN,15.460603,-90.394717,EODP ANEXA A EORM ROSAURA BELLAMAR IBA??EZ DE SIERRA,"1A. AVENIDA A 11-40 ZONA 12, FINCA SACHAMACH"
626,16-01-0107-43,ALTA VERAPAZ,COBAN,15.470122,-90.393033,"EORM ""PROFESORA ROSAURA BELLAMAR IBA??EZ WINTER DE SIERRA""","1A. AVENIDA A 11-40 ZONA 12, FINCA SACHAMACH;"
627,16-01-0108-43,ALTA VERAPAZ,COBAN,15.470122,-90.393033,EORM 'SARBELIO MORAN CHINCHILLA',LOTIFICACION CHIVENCORRAL
628,16-01-7869-42,ALTA VERAPAZ,COBAN,15.470122,-90.393033,EODP ANEXO A EOUM SARBELIO MORAN CHINCHILLA,COMUNIDAD CHIVENCORRAL ZONA 12
629,16-02-0150-41,ALTA VERAPAZ,SANTA CRUZ VERAPAZ,15.385781,-90.391675,COPB ANEXO A EORM PROF. FILIBERTO SIERRA,ALDEA CHIJOU
630,16-02-0156-43,ALTA VERAPAZ,SANTA CRUZ VERAPAZ,15.385781,-90.391675,EORM PROFESOR FILIBERTO SIERRA,ALDEA CHIJOU
631,16-01-0035-41,ALTA VERAPAZ,COBAN,15.450734,-90.391209,COPB ANEXO A EORM,ALDEA CHICHAIC
632,16-01-0089-43,ALTA VERAPAZ,COBAN,15.450734,-90.391209,EORM,ALDEA CHICHAIC
633,16-13-0954-41,ALTA VERAPAZ,CHISEC,15.788473,-90.39109,COPB ANEXA A EORM,CASERIO SEMUY
634,16-13-0971-43,ALTA VERAPAZ,CHISEC,15.788473,-90.39109,EORM,ALDEA SEMUY
635,16-01-0025-41,ALTA VERAPAZ,COBAN,15.4264,-90.388924,COPB ANEXO A EORM,ALDEA LAS CRUCES
636,16-01-0132-43,ALTA VERAPAZ,COBAN,15.4264,-90.388924,EORM,ALDEA LAS CRUCES
637,16-01-0345-43,ALTA VERAPAZ,COBAN,15.610201,-90.388446,EORM ALDEA MONTE BLANCO,ALDEA MONTE BLANCO
638,16-01-0508-41,ALTA VERAPAZ,COBAN,15.610201,-90.388446,COPB ANEXO A EORM,COMUNIDAD DOLORES GUADALUPE
639,16-01-7948-43,ALTA VERAPAZ,COBAN,15.488364,-90.388064,EORM,CASERIO SAN LUIS CHICOYOU
640,16-01-8257-41,ALTA VERAPAZ,COBAN,15.488364,-90.388064,COPB ANEXO EORM,CASERIO SAN LUIS CHICOYOU
641,16-13-1410-43,ALTA VERAPAZ,CHISEC,15.78495,-90.38739,EOUM,BARRIO ZAPOTE
642,16-01-1624-41,ALTA VERAPAZ,COBAN,15.559189,-90.38639,COPB ANEXO A EORM,ALDEA QUEBRADA EL NACIMIENTO SAROCJA
643,16-01-1166-43,ALTA VERAPAZ,COBAN,15.537131,-90.386167,EORM,COMUNIDAD GANCHO CAOBA II
644,16-01-0238-43,ALTA VERAPAZ,COBAN,15.68911,-90.386129,EORM COMUNIDAD DOLORES GUADALUPE,COMUNIDAD DOLORES GUADALUPE
645,16-01-0505-41,ALTA VERAPAZ,COBAN,15.68911,-90.386129,COPB ANEXO A EORM,ALDEA SACOYOU
646,16-01-0017-41,ALTA VERAPAZ,COBAN,15.579568,-90.385908,COPB ANEXO A EORM,ALDEA SAXOC
647,16-01-0103-43,ALTA VERAPAZ,COBAN,15.579568,-90.385908,EORM,ALDEA SAXOC
648,16-13-0195-41,ALTA VERAPAZ,CHISEC,15.78455,-90.38575,COPB ANEXA A EORM,COMUNIDAD EL ESFUERZO
649,16-13-9048-41,ALTA VERAPAZ,CHISEC,15.78455,-90.38575,COPB ANEXO A EORM,COMUNIDAD PLAYITAS
650,16-04-0247-41,ALTA VERAPAZ,TACTIC,15.312796,-90.385682,COPB ANEXO A EORM,ALDEA CHIACAL
651,16-04-0258-43,ALTA VERAPAZ,TACTIC,15.312796,-90.385682,"EOUM NO. 2 ""ALMA AMERICA MORALES DE RAMIREZ""","1A. AVENIDA 1-31, ZONA 7 CANTON CHIJACORRAL;"
652,16-04-0259-43,ALTA VERAPAZ,TACTIC,15.312796,-90.385682,EORM,ALDEA CHIACAL
653,16-04-8459-42,ALTA VERAPAZ,TACTIC,15.312796,-90.385682,EODP ANEXA A EORM,ALDEA CHIACAL
654,16-01-0109-43,ALTA VERAPAZ,COBAN,15.595887,-90.385589,EORM,FINCA SACHICHA
655,16-01-0271-43,ALTA VERAPAZ,COBAN,15.354587,-90.385584,EORM COMUNIDAD CAQUIPEC SATEX,COMUNIDAD CAQUIPEC SATEX
656,16-13-9132-43,ALTA VERAPAZ,CHISEC,15.784703,-90.38556,EORM,COMUNIDAD EL MANANTIAL
657,16-01-9880-43,ALTA VERAPAZ,COBAN,15.442438,-90.385464,EORM,ALDEA CHIRREOMAX
658,16-13-0028-41,ALTA VERAPAZ,CHISEC,16.054141,-90.384844,COPB COMUNIDAD ESPERANCITA DEL RIO,COMUNIDAD ESPERANCITA DEL RIO
659,16-13-0086-43,ALTA VERAPAZ,CHISEC,16.054141,-90.384844,EORM COMUNIDAD ESPERANCITA DEL RIO,COMUNIDAD ESPERANCITA DEL RIO
660,16-01-0654-43,ALTA VERAPAZ,COBAN,15.456209,-90.384255,EORM,PARAJE ENTRE RIOS NUEVA ESPERANZA
661,16-01-0660-42,ALTA VERAPAZ,COBAN,15.456209,-90.384255,EODP,"3ER CALLEJON ""C"" 16-40 ZONA 12 PETET"
662,16-04-2651-43,ALTA VERAPAZ,TACTIC,15.284926,-90.384068,EORM,ALDEA CHOJOL
663,16-04-6104-41,ALTA VERAPAZ,TACTIC,15.284926,-90.384068,COPB ANEXO A EORM,ALDEA CHOJOL
664,16-13-1551-41,ALTA VERAPAZ,CHISEC,15.787905,-90.383625,COPB ANEXO A EOUM,COLONIA LA FLORIDA
665,16-13-1552-41,ALTA VERAPAZ,CHISEC,15.787905,-90.383625,COPB ANEXO A EORM,ALDEA PECAJBA
666,16-13-2930-43,ALTA VERAPAZ,CHISEC,15.787905,-90.383625,EORM,ALDEA PECAJBA
667,16-01-0127-43,ALTA VERAPAZ,COBAN,15.469991,-90.383479,EOUN NO.2 JOSEFA JACINTO,13 AVENIDA 2-12 ZONA 2
668,16-01-0078-43,ALTA VERAPAZ,COBAN,15.700657,-90.38339,EORM,ALDEA TONTZUL UCULA
669,16-01-8462-41,ALTA VERAPAZ,COBAN,15.700657,-90.38339,COPB ANEXO A EORM,ALDEA TONTZUL UCULA
670,16-01-0054-42,ALTA VERAPAZ,COBAN,15.469327,-90.383319,EODP NO.2 GUSTAVO ADOLFO LEAL KLUG,BARRIO MAGDALENA
671,16-01-0432-41,ALTA VERAPAZ,COBAN,15.469327,-90.383319,COPB ANEXA A EORM,BELLA VISTA CHIMOTE
672,16-01-0438-41,ALTA VERAPAZ,COBAN,15.469327,-90.383319,COPB NO.2 GUSTAVO ADOLFO LEAL KLUG,BARRIO MAGDALENA ZONA 2
673,16-01-0464-41,ALTA VERAPAZ,COBAN,15.469327,-90.383319,COPB ANEXO A EORM,COMUNIDAD PANTUYATE
674,16-13-0037-42,ALTA VERAPAZ,CHISEC,15.740314,-90.383032,EODP COMUNIDAD COYOMBALAM,COMUNIDAD COYOMBALAM
675,16-13-0132-43,ALTA VERAPAZ,CHISEC,15.740314,-90.383032,EORM COMUNIDAD COYOMBALAM,COMUNIDAD COYOMBALAM
676,16-13-0095-43,ALTA VERAPAZ,CHISEC,15.761751,-90.382496,EORM COMUNIDAD LAS ROCAS,COMUNIDAD LAS ROCAS
677,16-13-0230-41,ALTA VERAPAZ,CHISEC,15.761751,-90.382496,COPB ANEXO A EORM,COMUNIDAD EL LIMON YALICAR
678,16-01-0575-41,ALTA VERAPAZ,COBAN,15.547404,-90.38214,COPB ANEXO A EORM,ALDEA SANTO TOMAS PURAHUB
679,16-01-1121-43,ALTA VERAPAZ,COBAN,15.547404,-90.38214,EORM,ALDEA SANTO TOMAS PURAHUB
680,16-01-0600-43,ALTA VERAPAZ,COBAN,15.675472,-90.38201,EORM,ALDEA SAN ISIDRO YAXCABNAL I
681,16-01-9518-41,ALTA VERAPAZ,COBAN,15.561373,-90.381777,COPB ANEXO A EORM,COMUNIDAD GUADALUPE
682,16-01-9519-43,ALTA VERAPAZ,COBAN,15.561373,-90.381777,EORM,COMUNIDAD GUADALUPE
683,16-13-0090-43,ALTA VERAPAZ,CHISEC,16.009133,-90.381173,EORM,COMUNIDAD TIERRA NEGRA I
684,16-01-0063-43,ALTA VERAPAZ,COBAN,15.468656,-90.38058,EOUV NO. 1 'VICTOR CHAVARRIA',10A. AVENIDA 4-22 ZONA 2
685,16-01-0018-41,ALTA VERAPAZ,COBAN,15.528187,-90.380268,COPB ANEXO A EORM,ALDEA SAN ISIDRO CHOVAL
686,16-01-0101-43,ALTA VERAPAZ,COBAN,15.528187,-90.380268,EORM,ALDEA SAN ISIDRO CHOVAL
687,16-01-6668-43,ALTA VERAPAZ,COBAN,15.477078,-90.380083,EDUCACION ESPECIAL Y CENTRO DE REHABILITACION INTEGRAL (CEE),6 AVENIDA 11-80 ZONA 12
688,16-01-2300-41,ALTA VERAPAZ,COBAN,15.452936,-90.379549,COPB ANEXO A EORM,BARRIO CHIRRETZAAJ
689,16-01-2300-43,ALTA VERAPAZ,COBAN,15.452936,-90.379549,EORM,BARRIO CHIRRETZAAJ
690,16-01-0040-41,ALTA VERAPAZ,COBAN,15.485327,-90.37875,COPB ANEXO A EORM,ALDEA GUALOM
691,16-01-0112-43,ALTA VERAPAZ,COBAN,15.485327,-90.37875,EORM,ALDEA GUALOM
692,16-01-0093-43,ALTA VERAPAZ,COBAN,15.566147,-90.378408,EORM,FINCA BILTITUN
693,16-01-0474-41,ALTA VERAPAZ,COBAN,15.48023,-90.376431,COPB ANEXO A EORM,RUBEL TZUL
694,16-01-0187-41,ALTA VERAPAZ,COBAN,15.629635,-90.375234,COPB ANEXO A EORM,ALDEA LAS FLORES CHITOC
695,16-01-0334-43,ALTA VERAPAZ,COBAN,15.629635,-90.375234,EORM ALDEA LAS FLORES CHITOC,ALDEA LAS FLORES CHITOC
696,16-04-8528-42,ALTA VERAPAZ,TACTIC,15.324576,-90.374494,CEIN -PAIN-,ALDEA TAMPO
697,16-01-0053-42,ALTA VERAPAZ,COBAN,15.471772,-90.374331,EODP 'FEDERICO FROEBEL',3A AVE. 2-35 ZONA 1
698,16-01-0159-41,ALTA VERAPAZ,COBAN,15.471772,-90.374331,COPB ANEXA A EORM,ALDEA SACANILLA
699,16-04-0257-43,ALTA VERAPAZ,TACTIC,15.324291,-90.374066,EORM PROFESOR EDGAR RONALDO FERNANDEZ MOYA,ALDEA TAMPO
700,16-04-1127-41,ALTA VERAPAZ,TACTIC,15.324291,-90.374066,COPB ANEXO A EORM,ALDEA TAMPO
701,16-01-1170-41,ALTA VERAPAZ,COBAN,15.467541,-90.373377,COPB ANEXO A EORM,CASERIO EL COROZAL
702,16-01-1618-43,ALTA VERAPAZ,COBAN,15.679813,-90.373374,EORM,CASERIO NUEVO SAN JOSE SA JUCUB HA
703,16-01-0186-41,ALTA VERAPAZ,COBAN,15.547368,-90.373074,COPB ANEXO A EORM,ALDEA SANTO TOMAS II
704,16-01-0330-43,ALTA VERAPAZ,COBAN,15.547368,-90.373074,EORM ALDEA SANTO TOMAS II,ALDEA SANTO TOMAS II
705,16-13-0112-43,ALTA VERAPAZ,CHISEC,15.924618,-90.37304,EORM COMUNIDAD NUEVA PALESTINA I,COMUNIDAD NUEVA PALESTINA I
706,16-01-0011-41,ALTA VERAPAZ,COBAN,15.541146,-90.372483,COPB ANEXO A EORM,ALDEA CHOVAL
707,16-01-0079-43,ALTA VERAPAZ,COBAN,15.541146,-90.372483,EORM,ALDEA CHOVAL
708,16-01-0636-41,ALTA VERAPAZ,COBAN,15.541146,-90.372483,COPB ANEXO A EORM,ALDEA CHIRREMESCHE
709,16-01-0569-43,ALTA VERAPAZ,COBAN,15.466423,-90.372266,EORM,ALDEA NUEVO LOS ANGELES
710,16-01-0158-41,ALTA VERAPAZ,COBAN,15.467554,-90.372206,COPB ANEXO A EORM,ALDEA SETUJ
711,16-01-1412-41,ALTA VERAPAZ,COBAN,15.467554,-90.372206,COPB ANEXA A EORM PROFA. ROSAURA BELLAMAR IBA??EZ DE SIERRA,"1A. AVENIDA A 11-40 ZONA 12, FINCA SACHAMACH"
712,16-01-0123-43,ALTA VERAPAZ,COBAN,15.396492,-90.372017,EORM,ALDEA SACANAIX
713,16-01-1518-42,ALTA VERAPAZ,COBAN,15.477776,-90.371577,EODP,BARRIO SANTO TOMAS 4A.AVE. 11-47 ZONA 1
714,16-01-0610-41,ALTA VERAPAZ,COBAN,15.469478,-90.371333,COPB ANEXA A EORM,CASERIO CERRO ALTO MONTE CRISTO
715,16-01-0061-43,ALTA VERAPAZ,COBAN,15.471545,-90.371295,EOUN NO.1 'FELIPA GOMEZ',2A. CALLE 1-99 ZONA 4
716,16-01-2299-43,ALTA VERAPAZ,COBAN,15.471545,-90.371295,EOUN NO.1 'FELIPA GOMEZ',2A. CALLE 1-99 ZONA 4
717,16-01-6597-43,ALTA VERAPAZ,COBAN,15.373909,-90.371146,EORM,ALDEA CHACALTE CHICHEN
718,16-01-0062-43,ALTA VERAPAZ,COBAN,15.467285,-90.3708,EOUV NO.2 'SALVADOR DE OLIVA',5A. CALLE 2-80 ZONA 3
719,16-01-0591-43,ALTA VERAPAZ,COBAN,15.467285,-90.3708,EORM,ALDEA CHIRREMESCHE
720,16-01-0582-43,ALTA VERAPAZ,COBAN,15.468882,-90.370716,EORM,FINCA SA CHOCHOC
721,16-01-8509-42,ALTA VERAPAZ,COBAN,15.459408,-90.370713,CEIN -PAIN-,6A. CALLE 0-26 ZONA 8
722,16-04-0025-43,ALTA VERAPAZ,TACTIC,15.262123,-90.370626,EORM,CHIMAXPOP
723,16-04-3844-43,ALTA VERAPAZ,TACTIC,15.262123,-90.370626,EORM,CASERIO EL PLATANAR
724,16-01-1520-42,ALTA VERAPAZ,COBAN,15.459209,-90.370439,EODP 'CANTON LAS CASAS',"BARRIO CANTON LAS CASAS, ZONA 8"
725,16-09-0101-42,ALTA VERAPAZ,SAN PEDRO CARCHA,15.624473,-90.370313,EODP CASERIO SEQUICCHE II,CASERIO SEQUICCHE II
726,16-09-0306-43,ALTA VERAPAZ,SAN PEDRO CARCHA,15.624473,-90.370313,EORM COMUNIDAD ESMERALDA,COMUNIDAD ESMERALDA
727,16-01-0601-43,ALTA VERAPAZ,COBAN,15.468789,-90.370286,EORM,ALDEA LA PAZ
728,16-01-0050-41,ALTA VERAPAZ,COBAN,15.579976,-90.370088,COPB ANEXA A EORM,ALDEA CERRO LINDO SACHICHA
729,16-01-0119-43,ALTA VERAPAZ,COBAN,15.579976,-90.370088,EORM,ALDEA CERRO LINDO SACHICHA
730,16-04-0001-41,ALTA VERAPAZ,TACTIC,15.313671,-90.369657,COPB,CASERIO CHIJULHA
731,16-04-0007-43,ALTA VERAPAZ,TACTIC,15.313671,-90.369657,EORM,CASERIO CHIJULHA
732,16-01-1489-41,ALTA VERAPAZ,COBAN,15.443658,-90.369487,COPB ANEXO A EORM,ALDEA CHINIMLAJOM
733,16-01-8024-43,ALTA VERAPAZ,COBAN,15.443658,-90.369487,EORM,ALDEA CHINIMLAJOM
734,16-01-0663-43,ALTA VERAPAZ,COBAN,15.47171,-90.369484,EORM,CASERIO EL PALMAR
735,16-01-1601-41,ALTA VERAPAZ,COBAN,15.470841,-90.369088,COPB ANEXO A EORM,COMUNIDAD JUMPICBAN
736,16-01-1605-43,ALTA VERAPAZ,COBAN,15.470841,-90.369088,EOUM,6A. AVE. 1-15 ZONA 4 BARRIO SAN MARCOS
737,16-01-9080-42,ALTA VERAPAZ,COBAN,15.470841,-90.369088,EODP ANEXA EOUM BARRIO SAN MARCOS,6TA. AV. 1-15 ZONA 4
738,16-01-0047-41,ALTA VERAPAZ,COBAN,15.457651,-90.368835,COPB ANEXO A EORM,CANTON LAS CASAS
739,16-01-0064-43,ALTA VERAPAZ,COBAN,15.457651,-90.368835,"EOUM DE APLICACION ""GENERAL ARTURO GUILLERMO DE LA CRUZ GELPCKE""",6A. AVENIDA 6-66 ZONA 11 BARRIO LA LIBERTAD;
740,16-01-0065-43,ALTA VERAPAZ,COBAN,15.457651,-90.368835,EOUM,CANTON LAS CASAS
741,16-01-1629-43,ALTA VERAPAZ,COBAN,15.457648,-90.368835,EORM,ALDEA IK MAHA
742,16-01-0209-42,ALTA VERAPAZ,COBAN,15.427779,-90.368765,EODP ALDEA CARRALHA,ALDEA CARRALHA
743,16-01-0297-43,ALTA VERAPAZ,COBAN,15.427779,-90.368765,EORM ALDEA CARRALHA,ALDEA CARRALHA
744,16-13-0260-43,ALTA VERAPAZ,CHISEC,15.787572,-90.368521,EORM,CASERIO MONTE SION
745,16-04-1408-43,ALTA VERAPAZ,TACTIC,15.345289,-90.368424,EORM,CASERIO RIO FRIO
746,16-01-0658-42,ALTA VERAPAZ,COBAN,15.467549,-90.367368,EODP,"15 CALLE LOTE 121 COLONIA EL ESFUERZO II, ZONA 12"
747,16-01-0183-41,ALTA VERAPAZ,COBAN,15.413869,-90.367227,COPB,COMUNIDAD TIERRA BLANCA SEBOL
748,16-01-0185-41,ALTA VERAPAZ,COBAN,15.413869,-90.367227,COPB ANEXO A EORM,ALDEA SACHISAY
749,16-01-0299-43,ALTA VERAPAZ,COBAN,15.413869,-90.367227,EORM ALDEA SACHISAY,CASERIO SACHISAY
750,16-01-0579-43,ALTA VERAPAZ,COBAN,15.471414,-90.367172,EORM,ALDEA SESAJAL
751,16-01-0643-43,ALTA VERAPAZ,COBAN,15.471414,-90.367172,EORM,CASERIO LAS NUBES
752,16-01-0283-43,ALTA VERAPAZ,COBAN,15.557874,-90.367071,EORM COMUNIDAD CHICHAJ,COMUNIDAD CHICHAJ
753,16-01-0608-43,ALTA VERAPAZ,COBAN,15.483755,-90.366521,EORM,CASERIO CHIRRIXPEC SACRANIX II
754,16-01-0110-43,ALTA VERAPAZ,COBAN,15.483754,-90.366521,EOUM,BARRIO LA LIBERTAD ZONA 11
755,16-01-9532-42,ALTA VERAPAZ,COBAN,15.483754,-90.366521,EODP ANEXA EOUM,BARRIO LA LIBERTAD ZONA 11
756,16-01-0066-43,ALTA VERAPAZ,COBAN,15.476797,-90.365585,EOUM 'RICARDO ANDERSON',9A. AVENIDA 7-28 ZONA 10
757,16-01-0446-43,ALTA VERAPAZ,COBAN,15.463028,-90.365559,EORM,ALDEA PANTUYATE SAMECAN
758,16-01-0019-41,ALTA VERAPAZ,COBAN,15.518138,-90.365489,COPB ANEXO A EORM,ALDEA CHINACOCOM
759,16-01-0104-43,ALTA VERAPAZ,COBAN,15.518138,-90.365489,EORM,ALDEA CHINACOCOM
760,16-01-0596-43,ALTA VERAPAZ,COBAN,15.470716,-90.365202,EORM,ALDEA PASO CONCEPCION
761,16-01-0085-43,ALTA VERAPAZ,COBAN,15.361663,-90.365193,EORM,ALDEA SATEX
762,16-01-1496-43,ALTA VERAPAZ,COBAN,15.460024,-90.365115,EORM,COMUNIDAD SECUTE
763,16-01-0039-41,ALTA VERAPAZ,COBAN,15.497502,-90.365006,COPB ANEXO A EORM,ALDEA SIGUANHA
764,16-01-0111-43,ALTA VERAPAZ,COBAN,15.497502,-90.365006,EORM,ALDEA SIGUANHA
765,16-01-0167-42,ALTA VERAPAZ,COBAN,15.694547,-90.364288,EODP,COMUNIDAD AGRICOLA SAMAZANTA
766,16-01-0220-43,ALTA VERAPAZ,COBAN,15.694547,-90.364288,EORM,COMUNIDAD AGRICOLA SAMANZANA
767,16-13-0243-43,ALTA VERAPAZ,CHISEC,15.807706,-90.364177,EORM,CASERIO MALAGUETA
768,16-01-0390-43,ALTA VERAPAZ,COBAN,15.472227,-90.363997,EORM,CASERIO RIO PALMERAS
769,16-01-0210-42,ALTA VERAPAZ,COBAN,15.582627,-90.36218,EODP ALDEA CERRO VERDE,ALDEA CERRO VERDE
770,16-01-0282-43,ALTA VERAPAZ,COBAN,15.582627,-90.36218,EORM,ALDEA CERRO VERDE
771,16-04-0012-43,ALTA VERAPAZ,TACTIC,15.333246,-90.362134,EORM,COMUNIDAD EL ASTILLERO
772,16-04-0251-41,ALTA VERAPAZ,TACTIC,15.289908,-90.361467,COPB ANEXO A EORM,ALDEA LAS FLORES
773,16-04-0266-43,ALTA VERAPAZ,TACTIC,15.289908,-90.361467,EORM,ALDEA LAS FLORES
774,16-01-0162-41,ALTA VERAPAZ,COBAN,15.528178,-90.361309,COPB COMUNIDAD SECANAIX,ALDEA SACANAIX
775,16-01-0285-43,ALTA VERAPAZ,COBAN,15.528178,-90.361309,EORM COMUNIDAD SECANAIX,COMUNIDAD SECANAIX
776,16-13-0048-43,ALTA VERAPAZ,CHISEC,16.035358,-90.360825,EORM COMUNIDAD TIERRA NEGRA II,COMUNIDAD TIERRA NEGRA II
777,16-13-0188-43,ALTA VERAPAZ,CHISEC,15.83107,-90.36052,EOUM,BARRIO SAN PABLO
778,16-01-1118-41,ALTA VERAPAZ,COBAN,15.606196,-90.360164,COPB ANEXA A EORM,ALDEA SEILOB SECABALLO CHE
779,16-01-1609-43,ALTA VERAPAZ,COBAN,15.606196,-90.360164,EORM,ALDEA SEILOB SE CABALLO CHE
780,16-04-0033-41,ALTA VERAPAZ,TACTIC,15.35645,-90.359704,COPB ANEXA A EORM,RIO FRIO
781,16-04-1549-43,ALTA VERAPAZ,TACTIC,15.35645,-90.359704,EORM,CASERIO SAMELB II
782,16-04-0067-42,ALTA VERAPAZ,TACTIC,15.31626,-90.358529,EODP,4TA. CALLE A 7-20 ZONA 5
783,16-04-0250-41,ALTA VERAPAZ,TACTIC,15.274821,-90.358176,COPB ANEXO A EORM,ALDEA CHACALTE
784,16-04-0265-43,ALTA VERAPAZ,TACTIC,15.274821,-90.358176,EORM,ALDEA CHACALTE
785,16-01-0164-41,ALTA VERAPAZ,COBAN,15.744422,-90.358144,COPB ALDEA CHINABOQUIL,ALDEA CHINABOQUIL
786,16-01-0262-43,ALTA VERAPAZ,COBAN,15.744422,-90.358144,EORM ALDEA CHINABOQUIL,ALDEA CHINABOQUIL
787,16-04-0056-41,ALTA VERAPAZ,TACTIC,15.31699,-90.35805,COPB ANEXO A EORM,4A. CALLE 7-40 ZONA 5
788,16-04-0061-43,ALTA VERAPAZ,TACTIC,15.31699,-90.35805,EORM,CASERIO PANSALCHE
789,16-01-2297-43,ALTA VERAPAZ,COBAN,15.533427,-90.357683,EORM,ALDEA TULCHE
790,16-01-9108-41,ALTA VERAPAZ,COBAN,15.533427,-90.357683,COPB ANEXO A EORM,ALDEA TULCHE
791,16-01-1117-41,ALTA VERAPAZ,COBAN,15.563983,-90.357545,COPB ANEXO A EORM,ALDEA CHUCUTA LA UNION
792,16-01-1611-43,ALTA VERAPAZ,COBAN,15.563983,-90.357545,EORM,ALDEA CHOCUTA LA UNION
793,16-01-0301-43,ALTA VERAPAZ,COBAN,15.383182,-90.356302,EORM COMUNIDAD EL RECUERDO CHICHEN,COMUNIDAD RECUERDO CHICHEN
794,16-01-0114-42,ALTA VERAPAZ,COBAN,15.432635,-90.355564,EODP ANEXA A EORM,ALDEA CHIRREPEC
795,16-01-0114-43,ALTA VERAPAZ,COBAN,15.432635,-90.355564,EORM,ALDEA CHIRREPEC
796,16-04-8864-42,ALTA VERAPAZ,TACTIC,15.318792,-90.355227,EODP,ALDEA GUAXPAC
797,16-04-0063-43,ALTA VERAPAZ,TACTIC,15.318805,-90.355187,EORM,ALDEA CHIACAL
798,16-04-0253-42,ALTA VERAPAZ,TACTIC,15.319165,-90.354099,EODP EDUARDO LEMUS DIMAS,2A. CALLE 3-38 ZONA 2
799,16-04-0038-43,ALTA VERAPAZ,TACTIC,15.31911,-90.35397,EORM,ALDEA PASMOLON
800,16-04-0252-41,ALTA VERAPAZ,TACTIC,15.31911,-90.35397,COPB ANEXO A EORM,ALDEA LA CUMBRE
801,16-01-0121-43,ALTA VERAPAZ,COBAN,15.512364,-90.353964,EORM,ALDEA CHINA ICHAB
802,16-04-0051-43,ALTA VERAPAZ,TACTIC,15.322414,-90.353827,EOUM NO. 2 ALMA AMERICA MORALES DE RAMIREZ,CANTON CHIJACORRAL
803,16-01-6592-43,ALTA VERAPAZ,COBAN,15.392986,-90.353664,EORM,ALDEA COXOPUR
804,16-01-1621-43,ALTA VERAPAZ,COBAN,15.364406,-90.353521,EORM,COMUNIDAD JUMPICBAN
805,16-01-0009-41,ALTA VERAPAZ,COBAN,15.525641,-90.353171,COPB ANEXO A EORM,ALDEA EL ROSARIO
806,16-01-0099-43,ALTA VERAPAZ,COBAN,15.525641,-90.353171,EORM,ALDEA EL ROSARIO KM. 227 RUTA A CHISEC
807,16-13-2943-43,ALTA VERAPAZ,CHISEC,15.781773,-90.352399,EORM,COMUNIDAD SAN SIMON I
808,16-09-0610-43,ALTA VERAPAZ,SAN PEDRO CARCHA,15.622169,-90.352251,EORM,ALDEA TZAPUR
809,16-09-7196-41,ALTA VERAPAZ,SAN PEDRO CARCHA,15.622169,-90.352251,COPB ANEXO A EORM,ALDEA TZAPUR
810,16-04-0004-42,ALTA VERAPAZ,TACTIC,15.310519,-90.352135,EODP,CASERIO CHI-IXIM
811,16-04-0010-43,ALTA VERAPAZ,TACTIC,15.310519,-90.352135,EORM,CASERIO CHI-IXIM
812,16-04-2098-41,ALTA VERAPAZ,TACTIC,15.30298,-90.351427,COPB ANEXO A EORM,ALDEA CHIALLI
813,16-04-2098-43,ALTA VERAPAZ,TACTIC,15.30298,-90.351427,EORM,ALDEA CHIALLI
814,16-04-1582-43,ALTA VERAPAZ,TACTIC,15.30271,-90.3514,EORM,CASERIO BEMPEC
815,16-04-0039-41,ALTA VERAPAZ,TACTIC,15.324541,-90.351193,"COPB ANEXO A EODP ""EDUARDO LEMUS DIMAS""",2A. CALLE 3-38 ZONA 2;
816,16-13-0975-43,ALTA VERAPAZ,CHISEC,15.975355,-90.351193,EORM,CASERIO TIERRA LINDA
817,16-13-8460-42,ALTA VERAPAZ,CHISEC,15.975355,-90.351193,EODP ANEXA A EORM,ALDEA TIERRA LINDA
818,16-04-0055-41,ALTA VERAPAZ,TACTIC,15.31644,-90.351097,COPB ANEXO A EOUM,CANTON CHIJACORRAL
819,16-04-0057-41,ALTA VERAPAZ,TACTIC,15.31644,-90.351097,COPB ANEXO A EORM,1A. AVENIDA 1-31 ZONA 7 CANTON CHIJACORRAL
820,16-04-0256-43,ALTA VERAPAZ,TACTIC,15.31644,-90.351097,EOUM HERIBERTO GALVEZ BARRIOS,4A. CALLE A 7-40 ZONA 5
821,16-04-8143-43,ALTA VERAPAZ,TACTIC,15.31644,-90.351097,EOUM HERIBERTO GALVEZ BARRIOS,4A CALLE 7-40 ZONA 5
822,16-04-0058-41,ALTA VERAPAZ,TACTIC,15.319134,-90.350638,COPB ANEXO A EOUM,4A. CALLE 7-40 ZONA 5
823,16-01-0343-43,ALTA VERAPAZ,COBAN,15.491191,-90.34858,EORM ALDEA CHIAJSEL,ALDEA CHIAJSEL
824,16-01-0041-41,ALTA VERAPAZ,COBAN,15.502461,-90.347626,COPB ANEXO A EORM,CERRITOS SAMUX CHIRRAXCAJ
825,16-01-0122-43,ALTA VERAPAZ,COBAN,15.502461,-90.347626,EORM,ALDEA CERRITOS SAMOX CHIRRAXCAJ
826,16-04-0014-43,ALTA VERAPAZ,TACTIC,15.350007,-90.347501,EORM,CASERIO EL MANANTIAL II
827,16-01-0024-41,ALTA VERAPAZ,COBAN,15.557448,-90.347407,COPB ANEXO A EORM,ALDEA UCULHA
828,16-01-0092-43,ALTA VERAPAZ,COBAN,15.557448,-90.347407,EORM,ALDEA UCULA
829,16-01-0237-43,ALTA VERAPAZ,COBAN,15.447366,-90.347126,EORM COMUNIDAD CHIBULBUT,COMUNIDAD CHIBULBUT
830,16-09-0055-41,ALTA VERAPAZ,SAN PEDRO CARCHA,15.60665,-90.346859,COPB COMUNIDAD MARIA AUXILIADORA,COMUNIDAD MARIA AUXILIADORA
831,16-09-0156-43,ALTA VERAPAZ,SAN PEDRO CARCHA,15.60665,-90.346859,EORM,COMUNIDAD MARIA AUXILIADORA
832,16-09-0417-41,ALTA VERAPAZ,SAN PEDRO CARCHA,15.690609,-90.345856,COPB ANEXO A EORM,ALDEA SETZAC SECONON
833,16-09-0323-43,ALTA VERAPAZ,SAN PEDRO CARCHA,15.690413,-90.345852,EORM ALDEA SAMOX SALAUTE,ALDEA SAMOX SALAUTE
834,16-10-2113-43,ALTA VERAPAZ,SAN JUAN CHAMELCO,15.387479,-90.345541,EORM CHILAXITO,ALDEA CHILAXITO
835,16-04-0006-41,ALTA VERAPAZ,TACTIC,15.313376,-90.345519,COPB,CASERIO SAN JUAN DE LA ASUNCION
836,16-04-0013-43,ALTA VERAPAZ,TACTIC,15.313376,-90.345519,EORM,CASERIO SAN JUAN DE LA ASUNCION
837,16-01-0184-41,ALTA VERAPAZ,COBAN,15.574105,-90.345273,COPB CASERIO CHIMOTE,CASERIO CHIMOTE
838,16-01-0350-43,ALTA VERAPAZ,COBAN,15.574105,-90.345273,EORM CASERIO CHIMOTE,CASERIO CHIMOTE
839,16-04-0027-41,ALTA VERAPAZ,TACTIC,15.291096,-90.344644,COPB ANEXA A EORM,EL PLATANAR
840,16-04-0035-41,ALTA VERAPAZ,TACTIC,15.291096,-90.344644,COPB ANEXO A EORM,CASERIO BEMPEC
841,16-01-0032-41,ALTA VERAPAZ,COBAN,15.593601,-90.344128,COPB ANEXO A EORM,ALDEA OSTUA
842,16-01-0084-43,ALTA VERAPAZ,COBAN,15.593601,-90.344128,EORM,ALDEA OSTUA
843,16-04-0003-42,ALTA VERAPAZ,TACTIC,15.323799,-90.343982,EODP COLONIA CAHABONCITO,COLONIA CAHABONCITO
844,16-04-0009-43,ALTA VERAPAZ,TACTIC,15.323799,-90.343982,EORM COLONIA CAHABONCITO,COLONIA CAHABONCITO
845,16-09-0579-41,ALTA VERAPAZ,SAN PEDRO CARCHA,15.628599,-90.34392,COPB ANEXO A EORM,FINCA COOPERATIVA CHILTE
846,16-09-0611-43,ALTA VERAPAZ,SAN PEDRO CARCHA,15.628599,-90.34392,EORM,FINCA COOPERATIVA CHILTE
847,16-01-1622-43,ALTA VERAPAZ,COBAN,15.454598,-90.343367,EORM,ALDEA SATEX II
848,16-01-1623-43,ALTA VERAPAZ,COBAN,15.454598,-90.343367,EORM,ALDEA QUEBRADA EL NACIMIENTO SAROCJA
849,16-01-0045-41,ALTA VERAPAZ,COBAN,15.466811,-90.343209,COPB ANEXO A EORM,ALDEA SAN JOSE LA COLONIA
850,16-01-0116-43,ALTA VERAPAZ,COBAN,15.466811,-90.343209,EORM 'AIDA MARTINEZ',ALDEA SAN JOSE LA COLONIA
851,16-01-8197-42,ALTA VERAPAZ,COBAN,15.466811,-90.343209,EODP ANEXA EORM AIDA MARTINEZ,ALDEA SAN JOSE LA COLONIA
852,16-04-0267-43,ALTA VERAPAZ,TACTIC,15.334706,-90.3431,EORM,ALDEA LA CUMBRE
853,16-10-7322-43,ALTA VERAPAZ,SAN JUAN CHAMELCO,15.388751,-90.34235,EORM,ALDEA CHISANIK
854,16-10-8262-41,ALTA VERAPAZ,SAN JUAN CHAMELCO,15.388751,-90.34235,COPB ANEXA A EORM,ALDEA CHISANIK
855,16-04-0032-41,ALTA VERAPAZ,TACTIC,15.288235,-90.341453,COPB ANEXA A EORM,AGUA FRIA
856,16-09-0573-41,ALTA VERAPAZ,SAN PEDRO CARCHA,15.680115,-90.339068,COPB ANEXO A EORM,ALDEA SAN VICENTE CHICATAL
857,16-09-0609-43,ALTA VERAPAZ,SAN PEDRO CARCHA,15.680115,-90.339068,EORM,ALDEA SAN VICENTE CHICATAL
858,16-13-1557-41,ALTA VERAPAZ,CHISEC,15.943908,-90.33892,COPB ANEXO A EORM,ALDEA SAMARIA
859,16-13-2791-43,ALTA VERAPAZ,CHISEC,15.943908,-90.33892,EORM,ALDEA YALCHACTI
860,16-01-0429-43,ALTA VERAPAZ,COBAN,15.570503,-90.33836,EORM,LAS BRISAS CHINPANTUN
861,16-01-0431-43,ALTA VERAPAZ,COBAN,15.570503,-90.33836,EORM,ALDEA BELLA VISTA CHIMOTE
862,16-09-0699-43,ALTA VERAPAZ,SAN PEDRO CARCHA,15.56395,-90.338331,EORM,ALDEA SEOCOB
863,16-10-1179-41,ALTA VERAPAZ,SAN JUAN CHAMELCO,15.418491,-90.338219,COPB ANEXA A EORM,ALDEA KAQ??IXMCHE
864,16-10-1181-43,ALTA VERAPAZ,SAN JUAN CHAMELCO,15.418491,-90.338219,EORM,ALDEA KAK IXIMCHE
865,16-09-0527-41,ALTA VERAPAZ,SAN PEDRO CARCHA,15.577867,-90.337472,COPB ANEXO A EORM,ALDEA CHIMOTE
866,16-09-0672-43,ALTA VERAPAZ,SAN PEDRO CARCHA,15.577867,-90.337472,EORM,ALDEA CHIMOTE
867,16-01-2092-43,ALTA VERAPAZ,COBAN,15.554675,-90.336941,EORM,ALDEA SETUJ
868,16-01-0022-41,ALTA VERAPAZ,COBAN,15.527156,-90.336391,COPB ANEXO A EORM,ALDEA CHILATZ
869,16-01-0096-43,ALTA VERAPAZ,COBAN,15.527156,-90.336391,EORM,ALDEA CHILATZ
870,16-09-7017-43,ALTA VERAPAZ,SAN PEDRO CARCHA,15.586829,-90.336089,EORM,ALDEA CHIGUARROM
871,16-09-8524-41,ALTA VERAPAZ,SAN PEDRO CARCHA,15.586829,-90.336089,COPB ANEXO A EORM,ALDEA CHIGUARROM
872,16-09-0473-41,ALTA VERAPAZ,SAN PEDRO CARCHA,15.497113,-90.335146,COPB ANEXO A EORM,CASERIO BENITZUL ULPAN
873,16-10-0792-43,ALTA VERAPAZ,SAN JUAN CHAMELCO,15.427791,-90.333491,EOUM MANUEL ALBERTO RAMIREZ FERNANDEZ,3A. CALLE 4-99 ZONA 4
874,16-10-7198-41,ALTA VERAPAZ,SAN JUAN CHAMELCO,15.427791,-90.333491,COPB ANEXA A EOUM MANUEL RAMIREZ FERNANDEZ,3ERA. CALLE 4-99 ZONA 4
875,16-10-0762-41,ALTA VERAPAZ,SAN JUAN CHAMELCO,15.431812,-90.332844,COPB ANEXA A EORM,CASERIO SESIBCHE
876,16-10-0802-43,ALTA VERAPAZ,SAN JUAN CHAMELCO,15.431812,-90.332844,EORM,CASERIO SESIBCHE
877,16-10-0763-42,ALTA VERAPAZ,SAN JUAN CHAMELCO,15.423726,-90.332707,EODP,BARRIO LA ESPERANZA
878,16-10-0756-41,ALTA VERAPAZ,SAN JUAN CHAMELCO,15.401419,-90.332143,COPB ANEXA A EORM,ALDEA XOTILA
879,16-10-0797-43,ALTA VERAPAZ,SAN JUAN CHAMELCO,15.401419,-90.332143,EORM,ALDEA XOTILA CHIMOX
880,16-09-0349-43,ALTA VERAPAZ,SAN PEDRO CARCHA,15.572567,-90.332121,EORM,ALDEA SANTO TOMAS CHIBAX
881,16-10-0070-41,ALTA VERAPAZ,SAN JUAN CHAMELCO,15.424062,-90.332105,COPB CENTRO OFICIAL DE PREPRIMARIA BILINGUE ANEXO A EORM,ALDEA COJILA
882,16-10-0723-41,ALTA VERAPAZ,SAN JUAN CHAMELCO,15.424062,-90.332105,COPB ANEXA A EOUM CARLOS PONCE ARCHILA,BARRIO SAN JUAN
883,16-10-0791-43,ALTA VERAPAZ,SAN JUAN CHAMELCO,15.424062,-90.332105,EOUM CARLOS PONCE ARCHILA,2DA. AVENIDA 1ERA. CALLE ZONA 1
884,16-09-9056-43,ALTA VERAPAZ,SAN PEDRO CARCHA,15.492437,-90.332058,EORM,ALDEA SECONTI
885,16-01-0157-41,ALTA VERAPAZ,COBAN,15.458195,-90.332013,COPB ANEXO A EORM,ALDEA CHINA ICHAB
886,16-01-1606-41,ALTA VERAPAZ,COBAN,15.458195,-90.332013,COPB ANEXO A EORM,CASERIO NUEVO SAN JOSE SA JUCUB HA
887,16-01-1606-43,ALTA VERAPAZ,COBAN,15.458195,-90.332013,EORM,COMUNIDAD SACANILLA
888,16-01-6778-41,ALTA VERAPAZ,COBAN,15.458195,-90.332013,COPB,COMUNIDAD MESTELA
889,16-01-6805-42,ALTA VERAPAZ,COBAN,15.458195,-90.332013,EODP ANEXA A EORM,ALDEA SACANILLA
890,16-09-0509-41,ALTA VERAPAZ,SAN PEDRO CARCHA,15.545802,-90.331493,COPB ANEXO A EORM,ALDEA PEQUIXUL
891,16-09-0659-43,ALTA VERAPAZ,SAN PEDRO CARCHA,15.545802,-90.331493,EORM,ALDEA PEQUIXUL
892,16-09-0619-43,ALTA VERAPAZ,SAN PEDRO CARCHA,15.60014,-90.330708,EORM,ALDEA SACRISTAL
893,16-09-1174-41,ALTA VERAPAZ,SAN PEDRO CARCHA,15.60014,-90.330708,COPB ANEXO A EORM,ALDEA SACRISTAL
894,16-04-0074-43,ALTA VERAPAZ,TACTIC,15.315695,-90.33064,EORM,CASERIO NUEVO SAN JULIAN
895,16-04-0075-41,ALTA VERAPAZ,TACTIC,15.315695,-90.33064,COPB,CASERIO NUEVO SAN JULIAN
896,16-13-1517-43,ALTA VERAPAZ,CHISEC,16.078346,-90.330259,EORM,CASERIO SERRANIA LA BENDICION
897,16-09-0469-41,ALTA VERAPAZ,SAN PEDRO CARCHA,15.472404,-90.329838,COPB ANEXO A EORM,CASERIO RUBEL CRUZ
898,16-09-0615-43,ALTA VERAPAZ,SAN PEDRO CARCHA,15.472404,-90.329838,EORM,ALDEA LA TRINIDAD CHIPATI
899,16-09-2871-41,ALTA VERAPAZ,SAN PEDRO CARCHA,15.472404,-90.329838,COPB ANEXO A EORM,ALDEA LA TRINIDAD CHIPATI
900,16-10-0054-43,ALTA VERAPAZ,SAN JUAN CHAMELCO,15.41305,-90.32914,EOUM,BARRIO SANTA ANA ORIENTAL
901,16-10-0046-41,ALTA VERAPAZ,SAN JUAN CHAMELCO,15.425012,-90.32906,COPB ANEXO A EORM,CASERIO CACTZIMAAJ
902,16-04-0015-43,ALTA VERAPAZ,TACTIC,15.305758,-90.328413,EORM,CASERIO SABOB
903,16-04-0249-41,ALTA VERAPAZ,TACTIC,15.305758,-90.328413,COPB ANEXO A EORM,ALDEA CUYQUEL
904,16-04-0263-43,ALTA VERAPAZ,TACTIC,15.305758,-90.328413,EORM,ALDEA CUYQUEL
905,16-09-0068-42,ALTA VERAPAZ,SAN PEDRO CARCHA,15.682974,-90.328337,EODP ALDEA SAN VICENTE SOSELA,ALDEA SAN VICENTE SOSELA
906,16-09-0329-43,ALTA VERAPAZ,SAN PEDRO CARCHA,15.682974,-90.328337,EORM ALDEA SAN VICENTE SOSELA,ALDEA SAN VICENTE SOSELA
907,16-09-0038-41,ALTA VERAPAZ,SAN PEDRO CARCHA,15.526596,-90.327483,COPB,ALDEA ESPERANZA CHILATZ
908,16-09-0127-43,ALTA VERAPAZ,SAN PEDRO CARCHA,15.526596,-90.327483,EORM,ALDEA ESPERANZA CHILATZ
909,16-09-0511-41,ALTA VERAPAZ,SAN PEDRO CARCHA,15.558378,-90.327203,COPB ANEXO A EORM,ALDEA CHICHAIB
910,16-09-0662-43,ALTA VERAPAZ,SAN PEDRO CARCHA,15.558378,-90.327203,EORM,ALDEA CHICHAIB
911,16-10-1515-43,ALTA VERAPAZ,SAN JUAN CHAMELCO,15.429253,-90.326272,EORM,CASERIO CONCEPCION CHAMIL
912,16-04-0005-41,ALTA VERAPAZ,TACTIC,15.320769,-90.326188,COPB,CASERIO CHIJI
913,16-04-0011-43,ALTA VERAPAZ,TACTIC,15.320769,-90.326188,EORM,CASERIO CHIJI
914,16-09-0552-41,ALTA VERAPAZ,SAN PEDRO CARCHA,15.503049,-90.325225,COPB ANEXO A EORM ROBERTO PONCE RUANO,ALDEA CHINAPETEN
915,16-09-0636-43,ALTA VERAPAZ,SAN PEDRO CARCHA,15.503049,-90.325225,EORM ROBERTO PONCE RUANO,ALDEA CHINAPETEN
916,16-13-0255-43,ALTA VERAPAZ,CHISEC,15.995289,-90.322721,EORM,CASERIO LA CEIBA
917,16-13-0968-43,ALTA VERAPAZ,CHISEC,15.995289,-90.322721,EORM,ALDEA YALMACHAC
918,16-13-0067-43,ALTA VERAPAZ,CHISEC,15.886737,-90.321558,EORM,COMUNIDAD EL ESFUERZO
919,16-13-0194-41,ALTA VERAPAZ,CHISEC,15.886737,-90.321558,COPB ANEXA A EORM,YALICOC
920,16-04-0243-41,ALTA VERAPAZ,TACTIC,15.272223,-90.321464,COPB ANEXO A EORM,ALDEA TZALAM
921,16-04-0255-43,ALTA VERAPAZ,TACTIC,15.272223,-90.321464,EORM,ALDEA TZALAM
922,16-10-0734-41,ALTA VERAPAZ,SAN JUAN CHAMELCO,15.425251,-90.321288,COPB ANEXA A EORM,BARRIO SAN LUIS
923,16-10-0773-43,ALTA VERAPAZ,SAN JUAN CHAMELCO,15.425251,-90.321288,EORM MANUEL RAMIREZ HERCULES,BARRIO SAN LUIS
924,16-01-0227-43,ALTA VERAPAZ,COBAN,15.358754,-90.321199,EORM COMUNIDAD MESTELA,ALDEA MESTELA
925,16-09-2383-41,ALTA VERAPAZ,SAN PEDRO CARCHA,15.54735,-90.320619,COPB,CASERIO SEPOC TANCHI
926,16-09-6731-43,ALTA VERAPAZ,SAN PEDRO CARCHA,15.54735,-90.320619,EORM,ALDEA CHIETZ
927,16-09-6839-43,ALTA VERAPAZ,SAN PEDRO CARCHA,15.54735,-90.320619,EORM,CASERIO SEPOC TANCHI
928,16-09-0340-43,ALTA VERAPAZ,SAN PEDRO CARCHA,15.621178,-90.320425,EORM CASERIO BENITZUL ULPAN,CASERIO BENITZUL ULPAN
929,16-13-0261-43,ALTA VERAPAZ,CHISEC,15.73472,-90.320332,EORM,ALDEA CANDELARIA YALICAR
930,16-13-0262-41,ALTA VERAPAZ,CHISEC,15.73472,-90.320332,COPB,ALDEA CANDELARIA YALICAR
931,16-09-0014-41,ALTA VERAPAZ,SAN PEDRO CARCHA,15.531367,-90.320201,COPB ANEXO A EORM,ALDEA CHIBACH
932,16-09-0016-41,ALTA VERAPAZ,SAN PEDRO CARCHA,15.531367,-90.320201,COPB,ALDEA SECHAJ
933,16-09-0133-43,ALTA VERAPAZ,SAN PEDRO CARCHA,15.531367,-90.320201,EORM ALDEA SECHAJ,ALDEA SECHAJ
934,16-09-0512-41,ALTA VERAPAZ,SAN PEDRO CARCHA,15.587854,-90.320103,COPB ANEXO A EORM,ALDEA SETA??A
935,16-09-0658-43,ALTA VERAPAZ,SAN PEDRO CARCHA,15.587854,-90.320103,EORM,ALDEA SETA??A
936,16-04-0245-41,ALTA VERAPAZ,TACTIC,15.317777,-90.320049,COPB ANEXO A EORM,ALDEA GUAXPAC
937,16-04-0262-43,ALTA VERAPAZ,TACTIC,15.317777,-90.320049,EORM,ALDEA GUAXPAC
938,16-09-0510-41,ALTA VERAPAZ,SAN PEDRO CARCHA,15.56874,-90.31996,COPB ANEXOA EORM,ALDEA CAQUIGUAL
939,16-09-0660-43,ALTA VERAPAZ,SAN PEDRO CARCHA,15.56874,-90.31996,EORM,ALDEA CAQUIGUAL
940,16-10-0736-41,ALTA VERAPAZ,SAN JUAN CHAMELCO,15.39577,-90.317635,COPB ANEXA A EORM,ALDEA CHICUJAL
941,16-10-0775-43,ALTA VERAPAZ,SAN JUAN CHAMELCO,15.39577,-90.317635,EORM,ALDEA CHICUJAL
942,16-09-0342-43,ALTA VERAPAZ,SAN PEDRO CARCHA,15.649437,-90.317345,EORM ALDEA SECARANILA II,ALDEA SECARANILA II
943,16-09-0570-41,ALTA VERAPAZ,SAN PEDRO CARCHA,15.457628,-90.317241,COPB ANEXO A EORM,ALDEA TZACANIHA
944,16-09-0654-43,ALTA VERAPAZ,SAN PEDRO CARCHA,15.457628,-90.317241,EORM,ALDEA TZACANIHA
945,16-09-0048-42,ALTA VERAPAZ,SAN PEDRO CARCHA,15.653914,-90.317035,EODP ALDEA SECOL,ALDEA SECOL
946,16-09-0137-43,ALTA VERAPAZ,SAN PEDRO CARCHA,15.653914,-90.317035,EORM ALDEA SECOL,ALDEA SECOL
947,16-10-0759-41,ALTA VERAPAZ,SAN JUAN CHAMELCO,15.412581,-90.316982,COPB ANEXA A EORM,ALDEA PURHA
948,16-10-0795-43,ALTA VERAPAZ,SAN JUAN CHAMELCO,15.412581,-90.316982,EORM,ALDEA PURAH
949,16-13-0234-41,ALTA VERAPAZ,CHISEC,15.828982,-90.316909,COPB ANEXO A EORM,CASERIO CHAQUIQUICHE
950,16-13-7339-43,ALTA VERAPAZ,CHISEC,15.828982,-90.316909,EORM,COMUNIDAD LAS RUINAS
951,16-09-0366-41,ALTA VERAPAZ,SAN PEDRO CARCHA,15.48047,-90.316607,COPB ANEXO A EORM,ALDEA SEQUIXPUR
952,16-09-0201-43,ALTA VERAPAZ,SAN PEDRO CARCHA,15.68258,-90.316147,EORM ALDEA CHICUXUB,ALDEA CHICUXUB
953,16-09-6519-41,ALTA VERAPAZ,SAN PEDRO CARCHA,15.68258,-90.316147,COPB ANEXO A EORM,ALDEA CHICUXUB
954,16-09-0601-43,ALTA VERAPAZ,SAN PEDRO CARCHA,15.479479,-90.315934,EOUV ADOLFO FERRIERE,8A. CALLE 4-47 ZONA 4
955,16-09-0749-43,ALTA VERAPAZ,SAN PEDRO CARCHA,15.479484,-90.315887,EORM NO. 2,ALDEA SEQUILA
956,16-09-0759-43,ALTA VERAPAZ,SAN PEDRO CARCHA,15.479484,-90.315887,EORM,CASERIO NUEVO AMANECER SAN VICENTE SECAAQ
957,16-09-0524-41,ALTA VERAPAZ,SAN PEDRO CARCHA,15.523005,-90.315847,COPB ANEXO A EORM,ALDEA CHIGUOYO
958,16-09-0669-43,ALTA VERAPAZ,SAN PEDRO CARCHA,15.523005,-90.315847,EORM,ALDEA CHIGUOYO
959,16-09-1578-41,ALTA VERAPAZ,SAN PEDRO CARCHA,15.532571,-90.315833,COPB ANEXO A EORM,COLONIA CHAHILPEC
960,16-13-0158-41,ALTA VERAPAZ,CHISEC,15.936086,-90.31563,COPB ANEXO A EORM,CASERIO LIMON IMPERIAL
961,16-13-2917-43,ALTA VERAPAZ,CHISEC,15.936086,-90.31563,EORM,CASERIO EL PARAISO
962,16-09-0755-43,ALTA VERAPAZ,SAN PEDRO CARCHA,15.475069,-90.315624,EORM,ALDEA HELIHA SESIS
963,16-10-0760-41,ALTA VERAPAZ,SAN JUAN CHAMELCO,15.436386,-90.315195,COPB ANEXA A EORM,ALDEA SAQUIJA
964,16-10-0793-43,ALTA VERAPAZ,SAN JUAN CHAMELCO,15.436386,-90.315195,EORM,ALDEA SAQUIJA
965,16-09-0056-41,ALTA VERAPAZ,SAN PEDRO CARCHA,15.508777,-90.314941,COPB ANEXO A EORM,ALDEA RUBEL CHAJ CHANYUC
966,16-09-0129-43,ALTA VERAPAZ,SAN PEDRO CARCHA,15.508777,-90.314941,EORM ALDEA RUBEL CHAJ CHANYUC,ALDEA RUBEL CHAJ CHANYUC
967,16-10-0761-41,ALTA VERAPAZ,SAN JUAN CHAMELCO,15.415491,-90.314896,COPB ANEXA A EORM,ALDEA SAN MARCOS
968,16-10-0794-43,ALTA VERAPAZ,SAN JUAN CHAMELCO,15.415491,-90.314896,EORM,ALDEA SAN MARCOS
969,16-09-0508-41,ALTA VERAPAZ,SAN PEDRO CARCHA,15.638737,-90.314557,COPB ANEXO A EORM,ALDEA SEQUIXQUIB
970,16-09-0661-43,ALTA VERAPAZ,SAN PEDRO CARCHA,15.638737,-90.314557,EORM,ALDEA SEQUIXQUIB
971,16-09-0809-42,ALTA VERAPAZ,SAN PEDRO CARCHA,15.638737,-90.314557,EODP,CASERIO SAN ANTONIO I
972,16-10-0005-41,ALTA VERAPAZ,SAN JUAN CHAMELCO,15.429874,-90.314404,COPB CASERIO CHEXENA,CASERIO CHEXENA
973,16-10-0028-43,ALTA VERAPAZ,SAN JUAN CHAMELCO,15.429874,-90.314404,EORM ALDEA TZUYUL,ALDEA TZUYUL
974,16-10-0029-43,ALTA VERAPAZ,SAN JUAN CHAMELCO,15.429874,-90.314404,EORM CASERIO CHEXENA,CASERIO CHEXENA
975,16-09-0293-43,ALTA VERAPAZ,SAN PEDRO CARCHA,15.546409,-90.313764,EORM,COMUNIDAD SEPOC TANCHI I
976,16-09-0422-41,ALTA VERAPAZ,SAN PEDRO CARCHA,15.546409,-90.313764,COPB ANEXO A EORM,ALDEA SECAQUITZIMAAJ SECONON
977,16-09-0318-43,ALTA VERAPAZ,SAN PEDRO CARCHA,15.553827,-90.312494,EORM CASERIO SESAB QUIXAL,CASERIO SESAB QUIXAL
978,16-09-0722-41,ALTA VERAPAZ,SAN PEDRO CARCHA,15.472948,-90.312107,COPB ANEXO A EORM,ALDEA SANTA MARIA RUBELTZUL
979,16-09-0616-43,ALTA VERAPAZ,SAN PEDRO CARCHA,15.472948,-90.312107,EOUM ADALBERTO RENE ROBLES DE LEON,"7A. AVENIDA 11-15 ZONA 2, BARRIO SARAXOCH"
980,16-09-2795-42,ALTA VERAPAZ,SAN PEDRO CARCHA,15.472948,-90.312107,EODP ANEXA A EOUM ADALBERTO RENE ROBLES DE LEON,7A. AVENIDA 11-15 ZONA 2
981,16-09-6718-43,ALTA VERAPAZ,SAN PEDRO CARCHA,15.472948,-90.312107,EORM,7A. AV. 11-15 ZONA 2 ALDEA SARAXOCH
982,16-06-0034-43,ALTA VERAPAZ,SAN MIGUEL TUCURU,15.475003,-90.311754,EORM,CASERIO SECAQUIB
983,16-13-0218-41,ALTA VERAPAZ,CHISEC,16.046284,-90.311673,COPB ANEXO A EOUM,BARRIO SAN PABLO
984,16-09-0543-41,ALTA VERAPAZ,SAN PEDRO CARCHA,15.491562,-90.311298,COPB ANEXO A EORM,ALDEA CHAJQUEJ
985,16-09-0688-43,ALTA VERAPAZ,SAN PEDRO CARCHA,15.491562,-90.311298,EORM,ALDEA CHAJQUEJ
986,16-01-0005-41,ALTA VERAPAZ,COBAN,15.359248,-90.31127,COPB ANEXO A EORM,ALDEA SAN PABLO XUCANEB
987,16-01-0072-43,ALTA VERAPAZ,COBAN,15.359248,-90.31127,EORM,ALDEA SAN PABLO XUCANEB
988,16-09-0330-43,ALTA VERAPAZ,SAN PEDRO CARCHA,15.52693,-90.31111,EORM CASERIO SEKACSIS CHIGUOYO,CASERIO SEKACSIS CHIGUOYO
989,16-09-0500-41,ALTA VERAPAZ,SAN PEDRO CARCHA,15.447164,-90.310931,COPB ANEXO A EORM,CASERIO SEQUIB
990,16-09-0628-43,ALTA VERAPAZ,SAN PEDRO CARCHA,15.447164,-90.310931,EORM,ALDEA SEQUIB
991,16-09-0195-43,ALTA VERAPAZ,SAN PEDRO CARCHA,15.703073,-90.310919,EORM,ALDEA CHAJCHACAN
992,16-09-0458-41,ALTA VERAPAZ,SAN PEDRO CARCHA,15.703073,-90.310919,COPB ANEXO A EORM,CASERIO EXALTACION POCOLA
993,16-13-0979-43,ALTA VERAPAZ,CHISEC,16.018744,-90.310409,EORM,CASERIO SAMARIA
994,16-09-9998-43,ALTA VERAPAZ,SAN PEDRO CARCHA,15.475918,-90.310213,EORM,"ALDEA ICHAB, SAN PEDRO CARCHA"
995,16-09-0425-41,ALTA VERAPAZ,SAN PEDRO CARCHA,15.47723,-90.310126,COPB ANEXO A EORM,ALDEA SETA??A
996,16-09-1511-43,ALTA VERAPAZ,SAN PEDRO CARCHA,15.477134,-90.309614,EORM,CASERIO SACBINAL
997,16-09-2218-43,ALTA VERAPAZ,SAN PEDRO CARCHA,15.48364,-90.309192,EORM,ALDEA CHIACHAL
998,16-13-1516-43,ALTA VERAPAZ,CHISEC,16.0026,-90.309131,EORM,CASERIO LOS ENCUENTROS
999,16-09-0599-42,ALTA VERAPAZ,SAN PEDRO CARCHA,15.475547,-90.309025,EODP JUAN RAMON PONCE GUAY,7A. CALLE 10A. AVENIDA ZONA 1
1000,16-09-0196-43,ALTA VERAPAZ,SAN PEDRO CARCHA,15.676918,-90.308884,EORM,CASERIO VISTA HERMOSA XALIHA
1001,16-09-0321-43,ALTA VERAPAZ,SAN PEDRO CARCHA,15.728237,-90.308751,EORM ALDEA NUEVA ESPERANZA,ALDEA NUEVA ESPERANZA
1002,16-09-0103-42,ALTA VERAPAZ,SAN PEDRO CARCHA,15.58319,-90.308023,EODP COMUNIDAD ESMERALDA,COMUNIDAD ESMERALDA
1003,16-09-0358-43,ALTA VERAPAZ,SAN PEDRO CARCHA,15.58319,-90.308023,EORM,ALDEA SAN LUCAS SEQUILA
1004,16-13-0233-41,ALTA VERAPAZ,CHISEC,15.833693,-90.3079,COPB ANEXO A EORM,ALDEA NUEVA TIERRA
1005,16-13-3764-43,ALTA VERAPAZ,CHISEC,15.833693,-90.3079,EORM,CASERIO CHAQUIQUICHE
1006,16-13-0015-41,ALTA VERAPAZ,CHISEC,15.775413,-90.307439,COPB COMUNIDAD RUBEL HO,RUBEL HO
1007,16-13-0084-43,ALTA VERAPAZ,CHISEC,15.775413,-90.307439,EORM COMUNIDAD RUBEL HO,COMUNIDAD RUBEL HO
1008,16-13-0120-43,ALTA VERAPAZ,CHISEC,15.762614,-90.307403,EORM COMUNIDAD GUADALUPE YALICAR,COMUNIDAD GUADALUPE YALICAR
1009,16-13-0190-43,ALTA VERAPAZ,CHISEC,16.039007,-90.307176,EORM,CASERIO EL PARAISO II
1010,16-13-0966-43,ALTA VERAPAZ,CHISEC,16.039007,-90.307176,EORM,ALDEA MONTE CRISTO
1011,16-09-0049-42,ALTA VERAPAZ,SAN PEDRO CARCHA,15.58055,-90.307059,EODP ALDEA SEHACHE,ALDEA SEHACHE
